World Port Index Number,Region Name,Main Port Name,Alternate Port Name,Tidal Range (m),Channel Depth (m),Anchorage Depth (m),Cargo Pier Depth (m),Maximum Vessel Length (m),Maximum Vessel Beam (m),Maximum Vessel Draft (m),Harbor Size,Harbor Type,Harbor Use,Shelter Afforded,Entrance Restriction - Tide,Entrance Restriction - Heavy Swell,Port Security,Vessel Traffic Service,Communications - Telephone,Communications - Radio,Communications - Airport,Communications - Rail,Facilities - Wharves,Facilities - Anchorage,Facilities - Dangerous Cargo Anchorage,Facilities - Ro-Ro,Facilities - Solid Bulk,Facilities - Liquid Bulk,Facilities - Container,Facilities - Breakbulk,Facilities - Oil Terminal,Facilities - LNG Terminal,Medical Facilities,Garbage Disposal,Cranes - Fixed,Cranes - Mobile,Cranes - Floating,Cranes - Container,Services - Longshoremen,Services - Electricity,Services - Navigation Equipment,Supplies - Provisions,Supplies - Potable Water,Supplies - Fuel Oil,Supplies - Diesel Oil,Repairs,Dry Dock,Railway,Latitude,Longitude
7950,United States E Coast -- 6585,Maurer, ,1.5,11,11,11,0,0,0,Very Small,River (Natural),Unknown,Good,No,No,Unknown,Unknown,Yes,Unknown,Yes,Yes,Yes,Unknown,Unknown,Unknown,Unknown,Unknown,Unknown,Unknown,Unknown,Unknown,Yes,Unknown,Unknown,Unknown,Unknown,Unknown,Unknown,Yes,Unknown,Yes,Yes,Yes,Yes,Moderate,Unknown,Unknown,40.533333,-74.25
52235,Sulawesi -- 51970,Mangkasa Oil Terminal, ,2,9.4,20.1,0,0,0,0,Small,Open Roadstead,Unknown,Poor,No,No,Unknown,Unknown,Unknown,Yes,Yes,Unknown,Yes,Unknown,Unknown,Unknown,Unknown,Unknown,Unknown,Unknown,Unknown,Unknown,Yes,No,Unknown,Unknown,Unknown,Unknown,Yes,Unknown,Unknown,No,No,No,No,None,Unknown,Unknown,-2.733333,121.066667
47620,Madagascar -- 47350,Iharana, ,8,14,14,4.9,0,0,0,Very Small,Coastal (Natural),Unknown,Good,Unknown,Unknown,Unknown,Unknown,Unknown,Unknown,Unknown,Unknown,Unknown,Yes,Unknown,Unknown,Unknown,Unknown,Unknown,Unknown,Unknown,Unknown,Unknown,Unknown,Unknown,Unknown,Unknown,Unknown,Yes,Unknown,Unknown,Yes,Yes,No,No,Emergency Only,Unknown,Unknown,-13.35,50
47360,Madagascar -- 47350,Andoany, ,4,20.1,15.5,7.9,0,0,0,Very Small,Open Roadstead,Unknown,Fair,Unknown,Yes,Unknown,Unknown,Unknown,Yes,Yes,Unknown,Unknown,Yes,Unknown,Unknown,Unknown,Unknown,Unknown,Unknown,Unknown,Unknown,Yes,Unknown,Yes,Yes,Unknown,Unknown,Yes,Yes,Unknown,Unknown,Yes,No,No,Emergency Only,Unknown,Unknown,-13.4,48.3
47020,Tanzania -- 46965,Chake Chake, ,0,14,12.5,0,0,0,0,Small,Coastal (Natural),Unknown,Fair,Unknown,Unknown,Unknown,Unknown,Unknown,Unknown,Yes,Unknown,Unknown,Yes,Unknown,Unknown,Unknown,Unknown,Unknown,Unknown,Unknown,Unknown,Yes,Unknown,Unknown,Unknown,Unknown,Unknown,Unknown,Unknown,Unknown,No,No,No,No,Unknown,Unknown,Unknown,-5.25,39.766667
47005,Tanzania -- 46965,Mjimwema Terminal, ,3,23.2,17.1,0,0,0,0,Very Small,Open Roadstead,Unknown,Poor,No,Yes,Unknown,Unknown,Unknown,Yes,Yes,Unknown,Unknown,Yes,Unknown,Unknown,Unknown,Unknown,Unknown,Unknown,Unknown,Unknown,Yes,Unknown,Unknown,Unknown,Unknown,Unknown,Unknown,Unknown,Unknown,Yes,Yes,Yes,No,None,Unknown,Unknown,-6.816667,39.366667
57245,Vanuatu -- 57160,Forari Bay, ,0,0,20.1,7.9,0,0,0,Very Small,Open Roadstead,Unknown,Fair,Unknown,Yes,Unknown,Unknown,Unknown,Yes,Unknown,Unknown,Yes,Unknown,Unknown,Unknown,Unknown,Unknown,Unknown,Unknown,Unknown,Unknown,No,Unknown,Unknown,Unknown,Unknown,Unknown,Unknown,Unknown,Unknown,No,No,No,No,Unknown,Unknown,Unknown,-17.683333,168.55
56820,Bismarck Archipelago -- 56700,Kokopo, ,2,23.2,17.1,1.8,0,0,0,Very Small,Open Roadstead,Unknown,Fair,No,No,Unknown,Unknown,Yes,Unknown,Unknown,Unknown,Unknown,Yes,Unknown,Unknown,Unknown,Unknown,Unknown,Unknown,Unknown,Unknown,Yes,No,Unknown,Unknown,Unknown,Unknown,No,Yes,No,Yes,Yes,No,No,Limited,Unknown,Unknown,-4.333333,152.266667
56710,Bismarck Archipelago -- 56700,Longan Island, ,2,11,7.9,1.8,0,0,0,Very Small,Coastal (Natural),Unknown,Poor,No,No,Unknown,Unknown,Unknown,Unknown,Unknown,Unknown,Unknown,Yes,Unknown,Unknown,Unknown,Unknown,Unknown,Unknown,Unknown,Unknown,Yes,Yes,Unknown,Unknown,Unknown,Unknown,Yes,No,No,No,Yes,No,No,Unknown,Unknown,Unknown,-1.216667,144.3
56660, ,Malakal Harbor, ,4,12.5,17.1,6.4,0,0,0,Very Small,Open Roadstead,Unknown,Good,No,Yes,Unknown,Unknown,Unknown,Unknown,Yes,Unknown,Yes,Yes,Unknown,Unknown,Unknown,Unknown,Unknown,Unknown,Unknown,Unknown,Yes,Yes,Unknown,Yes,Yes,Unknown,Yes,Yes,No,Yes,Yes,Yes,Yes,Limited,Unknown,Unknown,7.333333,134.45
56630,Caroline Islands -- 56560,Colonia,Tomil Harbor; Yap Colonia International Port,1,23.2,23.2,7.9,0,0,0,Very Small,Coastal (Natural),Unknown,Good,No,No,Unknown,Unknown,Yes,Yes,Yes,Unknown,Unknown,Yes,Unknown,Unknown,Unknown,Unknown,Unknown,Unknown,Unknown,Unknown,Yes,Yes,No,No,No,Unknown,Yes,Yes,No,Unknown,Yes,Yes,Unknown,Limited,Medium,Unknown,9.516667,138.133333
56600,Caroline Islands -- 56560,Moen,Chuuk; Weno,1,7.9,0,7.9,0,0,0,Very Small,Open Roadstead,Unknown,Good,No,No,Unknown,Unknown,Yes,Yes,Yes,Unknown,Yes,Yes,Unknown,Unknown,Unknown,Unknown,Unknown,Unknown,Unknown,Unknown,Yes,Yes,Yes,Unknown,Unknown,Unknown,Yes,Yes,No,Yes,Yes,Yes,Unknown,Emergency Only,Unknown,Unknown,7.433333,151.833333
56570,Caroline Islands -- 56560,Lele Harbor, ,1,14,12.5,7.9,0,0,0,Very Small,Coastal (Natural),Unknown,Fair,No,Yes,Unknown,Unknown,Unknown,Yes,Unknown,Unknown,Unknown,Yes,Unknown,Unknown,Unknown,Unknown,Unknown,Unknown,Unknown,Unknown,Yes,No,Unknown,Unknown,Unknown,Unknown,No,Yes,No,Yes,Yes,Yes,Yes,Emergency Only,Unknown,Unknown,5.333333,163.033333
44804,Turkey Asia -- 44360,Delta Terminal, ,0,0,23.2,0,0,0,0,Very Small,Open Roadstead,Unknown,Poor,Unknown,Unknown,Unknown,Unknown,Unknown,Yes,Unknown,Unknown,Yes,Yes,Unknown,Unknown,Unknown,Unknown,Unknown,Unknown,Unknown,Unknown,Yes,Unknown,Unknown,Unknown,Unknown,Unknown,Unknown,Yes,Yes,Yes,Unknown,Yes,Yes,Moderate,Unknown,Unknown,36.85,36.166667
50350,Indonesia -- 50020,Cinta Oil Terminal, ,0,23.2,23.2,0,0,0,0,Very Small,Open Roadstead,Unknown,Poor,No,No,Unknown,Unknown,Unknown,Yes,Yes,Yes,Yes,Yes,Unknown,Unknown,Unknown,Unknown,Unknown,Unknown,Unknown,Unknown,Yes,No,Unknown,Unknown,Unknown,Unknown,Unknown,Unknown,Unknown,No,No,No,No,Emergency Only,Unknown,Unknown,-5.5,106.233333
4000,Canada Lake Huron -- 3640,Port Severn, ,0,1.8,1.8,1.8,0,0,0,Very Small,River (Natural),Unknown,Excellent,Unknown,Unknown,Unknown,Unknown,Unknown,Unknown,Unknown,Unknown,Yes,Unknown,Unknown,Unknown,Unknown,Unknown,Unknown,Unknown,Unknown,Unknown,Unknown,Unknown,Unknown,Unknown,Unknown,Unknown,Unknown,Unknown,Unknown,Unknown,Yes,Yes,Unknown,Limited,Unknown,Unknown,44.8,-79.716667
38330,Gibraltar -- 38320,Europa Point, ,1,12.5,18.6,7.9,0,0,0,Medium,Coastal (Breakwater),Unknown,Good,No,Yes,Unknown,Unknown,Yes,Yes,Yes,Yes,Yes,Unknown,Unknown,Unknown,Unknown,Unknown,Unknown,Unknown,Unknown,Unknown,Yes,Unknown,Yes,Yes,Unknown,Unknown,Yes,Unknown,Yes,Yes,Yes,Yes,Yes,Major,Medium,Small,36.133333,-5.35
56945,Papua New Guinea -- 56695,Queen Carola Harbor, ,2,17.1,11,1.8,0,0,0,Very Small,Coastal (Natural),Unknown,Good,No,No,Unknown,Unknown,No,Yes,Yes,Unknown,Yes,Yes,Unknown,Unknown,Unknown,Unknown,Unknown,Unknown,Unknown,Unknown,Yes,Unknown,Unknown,Yes,Unknown,Unknown,Yes,Unknown,Unknown,Yes,No,Unknown,Yes,Limited,Unknown,Unknown,-5.166667,154.55
7010,United States E Coast -- 6585,New Harbor, ,2.7,6.4,6.4,1.8,0,0,0,Very Small,Coastal (Natural),Unknown,Fair,Yes,No,Unknown,Unknown,Yes,Unknown,Unknown,Unknown,Yes,Unknown,Unknown,Unknown,Unknown,Unknown,Unknown,Unknown,Unknown,Unknown,Unknown,Unknown,Unknown,Unknown,Unknown,Unknown,Unknown,Unknown,Unknown,Yes,Yes,Unknown,Yes,Limited,Unknown,Unknown,43.866667,-69.483333
5980,Cape Breton Island -- 5860,Little Bras D Or, ,3,3.4,6.4,3.4,0,0,0,Very Small,Coastal (Natural),Unknown,Excellent,No,No,Unknown,Unknown,Unknown,Unknown,Unknown,Yes,Yes,Unknown,Unknown,Unknown,Unknown,Unknown,Unknown,Unknown,Unknown,Unknown,Yes,Unknown,Unknown,Unknown,Unknown,Unknown,Unknown,Unknown,Unknown,Yes,Unknown,Unknown,Yes,Unknown,Unknown,Unknown,46.25,-60.3
53020,New Guinea West Coast - Irian Jaya -- 52900,Tg. Sorong,Kasim,1,18.6,23.2,11,0,0,0,Small,Open Roadstead,Unknown,Fair,Yes,No,Unknown,Unknown,Unknown,Yes,Yes,Unknown,Yes,Unknown,Unknown,Unknown,Unknown,Unknown,Unknown,Unknown,Unknown,Unknown,Yes,No,Yes,Unknown,Unknown,Unknown,Yes,Unknown,Unknown,Yes,Yes,Yes,Yes,Limited,Small,Unknown,-0.883333,131.233333
4950,US Lake Michigan -- 4570,Depere, ,0,6.4,6.4,4.9,0,0,0,Very Small,River (Natural),Unknown,Good,No,No,Unknown,Unknown,No,No,Yes,Yes,Yes,Unknown,Unknown,Unknown,Unknown,Unknown,Unknown,Unknown,Unknown,Unknown,Yes,Unknown,Unknown,Unknown,Unknown,Unknown,Unknown,Unknown,Unknown,Yes,Yes,Yes,Yes,Unknown,Unknown,Unknown,44.45,-88.066667
4630,US Lake Michigan -- 4570,Leland, ,0,3.4,1.8,1.8,0,0,0,Very Small,Coastal (Breakwater),Unknown,Fair,No,No,Unknown,Unknown,Yes,No,Unknown,Unknown,Yes,Unknown,Unknown,Unknown,Unknown,Unknown,Unknown,Unknown,Unknown,Unknown,Yes,Unknown,Unknown,Unknown,Unknown,Unknown,Unknown,Yes,Unknown,Yes,Yes,Unknown,Yes,Unknown,Unknown,Unknown,45.016667,-85.766667
20940,Norway -- 20620,Bredvik, ,0,0,6.4,4.9,0,0,0,Very Small,Coastal (Natural),Unknown,Good,No,No,Unknown,Unknown,Yes,Yes,Unknown,Yes,Yes,Yes,Unknown,Unknown,Unknown,Unknown,Unknown,Unknown,Unknown,Unknown,Unknown,Unknown,No,No,No,Unknown,Unknown,Unknown,Unknown,Yes,Yes,Unknown,Yes,None,Unknown,Small,70.583333,22.133333
19880,Alaska -- 19080,Lazy Bay, ,2.7,23.2,15.5,7.9,0,0,0,Very Small,Coastal (Natural),Unknown,Poor,No,No,Unknown,Unknown,Unknown,Yes,Yes,Unknown,Yes,Yes,Unknown,Unknown,Unknown,Unknown,Unknown,Unknown,Unknown,Unknown,Yes,No,Unknown,Unknown,Unknown,Unknown,No,No,No,Yes,Yes,No,Yes,Limited,Unknown,Unknown,56.9,-154.25
12900,Brazil SE Coast -- 12700,Dtse / Gegua Oil Terminal, ,1,11,14,0,0,0,0,Medium,Open Roadstead,Unknown,Fair,Unknown,Unknown,Unknown,Unknown,Unknown,Yes,Unknown,Unknown,Unknown,Unknown,Unknown,Unknown,Unknown,Unknown,Unknown,Unknown,Unknown,Unknown,Yes,Yes,Unknown,Unknown,Yes,Unknown,Unknown,Yes,Unknown,Yes,Yes,Yes,Yes,Major,Medium,Unknown,-22.816667,-43.15
48104,Saudi Arabia -- 48100,Sharmah,Ash Sharmah,0,23.2,0,0,0,0,0,Very Small,Coastal (Natural),Unknown,Poor,Unknown,Unknown,Unknown,Unknown,Unknown,Unknown,Unknown,Unknown,Unknown,Unknown,Unknown,Unknown,Unknown,Unknown,Unknown,Unknown,Unknown,Unknown,Unknown,Unknown,Unknown,Unknown,Unknown,Unknown,Unknown,Unknown,Unknown,Unknown,Unknown,Unknown,Unknown,Unknown,Unknown,Unknown,27.933333,35.25
9210,US Gulf Coast -- 8650,Norsworthy, ,0.3,11,9.4,9.4,0,0,0,Very Small,River (Natural),Unknown,Good,No,No,Unknown,Unknown,Yes,Unknown,Unknown,Yes,Yes,Unknown,Unknown,Unknown,Unknown,Unknown,Unknown,Unknown,Unknown,Unknown,Yes,Unknown,Unknown,Unknown,Unknown,Unknown,Unknown,Unknown,Unknown,Yes,Yes,Yes,Yes,Unknown,Unknown,Medium,29.733333,-95.2
8400,United States E Coast -- 6585,Bayboro, ,0,3.4,1.8,1.8,0,0,0,Very Small,River (Natural),Unknown,Good,No,No,Unknown,Unknown,Yes,Unknown,Unknown,Unknown,Yes,Unknown,Unknown,Unknown,Unknown,Unknown,Unknown,Unknown,Unknown,Unknown,Yes,Unknown,Unknown,Unknown,Unknown,Unknown,Unknown,Unknown,Unknown,Yes,Yes,Yes,Unknown,Limited,Unknown,Small,35.15,-76.766667
4240,Canada Lake Huron -- 3640,Hilton,Marksville,0,3.4,9.4,3.4,0,0,0,Very Small,Coastal (Natural),Unknown,Good,No,No,Unknown,Unknown,Unknown,Unknown,Unknown,Unknown,Yes,Unknown,Unknown,Unknown,Unknown,Unknown,Unknown,Unknown,Unknown,Unknown,Unknown,Unknown,Unknown,Unknown,Unknown,Unknown,Unknown,Unknown,Unknown,Unknown,Unknown,Yes,Yes,Unknown,Unknown,Unknown,46.25,-83.883333
4160,Canada Lake Huron -- 3640,Kagawong, ,0,6.4,11,4.9,0,0,0,Very Small,Coastal (Natural),Unknown,Excellent,No,No,Unknown,Unknown,Unknown,Unknown,Unknown,Unknown,Yes,Unknown,Unknown,Unknown,Unknown,Unknown,Unknown,Unknown,Unknown,Unknown,Unknown,Unknown,Unknown,Unknown,Unknown,Unknown,Unknown,Unknown,Unknown,Unknown,Yes,Yes,Yes,Limited,Unknown,Unknown,45.916667,-82.25
3130,US Lake Ontario -- 3120,Chaumont, ,0,7.9,4.9,1.8,0,0,0,Very Small,Coastal (Natural),Unknown,Excellent,No,No,Unknown,Unknown,Yes,Unknown,Unknown,Unknown,Yes,Unknown,Unknown,Unknown,Unknown,Unknown,Unknown,Unknown,Unknown,Unknown,Unknown,Unknown,Unknown,Unknown,Unknown,Unknown,Unknown,Unknown,Unknown,Yes,Yes,Yes,Yes,Limited,Unknown,Small,44.066667,-76.133333
20000,Alaska -- 19080,Kanatak, ,3,0,0,0,0,0,0,Very Small,Open Roadstead,Unknown,Poor,No,No,Unknown,Unknown,Unknown,Unknown,Unknown,Unknown,Unknown,Unknown,Unknown,Unknown,Unknown,Unknown,Unknown,Unknown,Unknown,Unknown,Unknown,Unknown,Unknown,Unknown,Unknown,Unknown,Unknown,Unknown,Unknown,Unknown,Unknown,Unknown,Unknown,Unknown,Unknown,Unknown,57.566667,-156.033333
5520,South Side -- 5501,Douglastown, ,0,1.8,18.6,6.4,0,0,0,Very Small,Open Roadstead,Unknown,Fair,No,No,Unknown,Unknown,Unknown,Unknown,Unknown,Yes,Unknown,Unknown,Unknown,Unknown,Unknown,Unknown,Unknown,Unknown,Unknown,Unknown,Unknown,Unknown,Unknown,Unknown,Unknown,Unknown,Unknown,Unknown,Unknown,Unknown,Unknown,Unknown,Unknown,Unknown,Unknown,Unknown,48.766667,-64.383333
28615,Latvia -- 28600,Lielupe, ,0,1.8,23.2,3.4,0,0,0,Very Small,River (Natural),Unknown,Fair,Unknown,Unknown,Unknown,Unknown,Yes,Yes,Yes,Yes,Unknown,Unknown,Unknown,Unknown,Unknown,Unknown,Unknown,Unknown,Unknown,Unknown,Yes,Unknown,Unknown,Unknown,Unknown,Unknown,Unknown,Unknown,Unknown,Unknown,Yes,Yes,Unknown,Unknown,Unknown,Small,57,23.433333
19630,Alaska -- 19080,Katalla, ,2.4,0,11,0,0,0,0,Very Small,Open Roadstead,Unknown,Fair,No,No,Unknown,Unknown,Unknown,Unknown,Unknown,Unknown,Unknown,Yes,Unknown,Unknown,Unknown,Unknown,Unknown,Unknown,Unknown,Unknown,Unknown,Unknown,Unknown,Unknown,Unknown,Unknown,Unknown,Unknown,Unknown,Unknown,Unknown,Unknown,Unknown,Unknown,Unknown,Unknown,60.2,-144.533333
6750,United States E Coast -- 6585,Minturn, ,3,1.8,9.4,0,0,0,0,Very Small,Coastal (Natural),Unknown,Good,Yes,No,Unknown,Unknown,Yes,Unknown,Unknown,Unknown,Yes,Unknown,Unknown,Unknown,Unknown,Unknown,Unknown,Unknown,Unknown,Unknown,Unknown,Unknown,Unknown,Unknown,Unknown,Unknown,Unknown,Unknown,Unknown,Yes,Yes,Unknown,Yes,Unknown,Unknown,Unknown,44.15,-68.45
6820,United States E Coast -- 6585,Criehaven, ,2.7,1.8,1.8,1.8,0,0,0,Very Small,Coastal (Breakwater),Unknown,Poor,No,No,Unknown,Unknown,Yes,Unknown,Unknown,Unknown,Yes,Unknown,Unknown,Unknown,Unknown,Unknown,Unknown,Unknown,Unknown,Unknown,Unknown,Unknown,Unknown,Unknown,Unknown,Unknown,Unknown,Unknown,Unknown,Yes,Yes,Yes,Yes,Unknown,Unknown,Unknown,43.833333,-68.883333
29800,Aero -- 29780,Aeroskobing, ,0,3.4,6.4,4.9,0,0,0,Very Small,Coastal (Breakwater),Unknown,Good,Yes,No,Unknown,Unknown,Yes,Yes,Yes,Unknown,Yes,Unknown,Unknown,Unknown,Unknown,Unknown,Unknown,Unknown,Unknown,Unknown,Unknown,Unknown,Yes,Unknown,Unknown,Unknown,Unknown,Unknown,Unknown,Yes,Yes,Yes,Yes,Limited,Small,Unknown,54.883333,10.416667
43950,Ukraine -- 43620,Kyrylivka, ,0,4.9,4.9,1.8,0,0,0,Very Small,Open Roadstead,Unknown,Fair,No,No,Unknown,Unknown,Unknown,Unknown,Unknown,Unknown,Yes,Yes,Unknown,Unknown,Unknown,Unknown,Unknown,Unknown,Unknown,Unknown,Unknown,Unknown,Unknown,Unknown,Unknown,Unknown,Unknown,Unknown,Unknown,Unknown,Unknown,Unknown,Unknown,Unknown,Unknown,Unknown,46.35,35.366667
46691,Ascension -- 46660,North Point, ,0,0,3.4,0,0,0,0,Small,Open Roadstead,Unknown,Poor,Unknown,Unknown,Unknown,Unknown,Unknown,Yes,Unknown,Unknown,Unknown,Yes,Unknown,Unknown,Unknown,Unknown,Unknown,Unknown,Unknown,Unknown,Unknown,Unknown,Unknown,Unknown,Unknown,Unknown,Unknown,Unknown,Unknown,Unknown,Unknown,Unknown,Unknown,Unknown,Unknown,Unknown,-7.883333,-14.366667
57433,Thailand -- 57431,Bongkot Terminal, ,0,23.2,23.2,0,0,0,0,Very Small,Open Roadstead,Unknown,Poor,Unknown,Unknown,Unknown,Unknown,Unknown,Yes,Unknown,Unknown,Unknown,Yes,Unknown,Unknown,Unknown,Unknown,Unknown,Unknown,Unknown,Unknown,No,No,Unknown,Unknown,Unknown,Unknown,Unknown,Unknown,Unknown,No,No,No,No,None,Unknown,Unknown,8.05,102.333333
52350,Sulawesi -- 51970,Donggala, ,4,23.2,23.2,1.8,0,0,0,Very Small,Open Roadstead,Unknown,Fair,Unknown,Yes,Unknown,Unknown,Unknown,Yes,Yes,Unknown,Unknown,Yes,Unknown,Unknown,Unknown,Unknown,Unknown,Unknown,Unknown,Unknown,Yes,Unknown,Unknown,Unknown,Unknown,Unknown,Unknown,Unknown,Unknown,Yes,Yes,No,No,Emergency Only,Unknown,Unknown,-0.65,119.733333
3790,Canada Lake Huron -- 3640,Lions Head, ,0,3.4,3.4,3.4,0,0,0,Very Small,Coastal (Breakwater),Unknown,Good,No,No,Unknown,Unknown,Unknown,Unknown,No,Unknown,Yes,Unknown,Unknown,Unknown,Unknown,Unknown,Unknown,Unknown,Unknown,Unknown,Yes,Unknown,Unknown,Unknown,Unknown,Unknown,Unknown,Unknown,Unknown,Yes,Yes,Yes,Unknown,None,Unknown,Unknown,44.983333,-81.25
4150,Canada Lake Huron -- 3640,Honora, ,0,6.4,7.9,1.8,0,0,0,Very Small,Coastal (Natural),Unknown,Excellent,No,No,Unknown,Unknown,Yes,Unknown,Unknown,Unknown,Yes,Unknown,Unknown,Unknown,Unknown,Unknown,Unknown,Unknown,Unknown,Unknown,Unknown,Unknown,Unknown,Unknown,Unknown,Unknown,Unknown,Unknown,Unknown,Unknown,Unknown,Unknown,Unknown,Unknown,Unknown,Unknown,45.866667,-82.166667
23300,Norway -- 20620,Meling, ,0,0,12.5,1.8,0,0,0,Very Small,Coastal (Natural),Unknown,Good,No,Yes,Unknown,Unknown,Yes,Unknown,Unknown,Unknown,Yes,Yes,Unknown,Unknown,Unknown,Unknown,Unknown,Unknown,Unknown,Unknown,Unknown,Unknown,Yes,Unknown,Unknown,Unknown,Unknown,Unknown,Unknown,Unknown,Yes,Yes,Unknown,Unknown,Unknown,Unknown,59.783333,5.116667
23107,Norway -- 20620,Bud, ,0,0,4.9,4.9,0,0,0,Very Small,Coastal (Breakwater),Unknown,Fair,No,No,Unknown,Unknown,Yes,Unknown,Unknown,Unknown,Yes,Yes,Unknown,Unknown,Unknown,Unknown,Unknown,Unknown,Unknown,Unknown,Unknown,Unknown,Unknown,Unknown,Unknown,Unknown,Unknown,Unknown,Unknown,Yes,Yes,Yes,Unknown,Limited,Unknown,Unknown,62.9,6.916667
23455,Norway -- 20620,Espevaer, ,0,0,12.5,6.4,0,0,0,Very Small,Coastal (Natural),Unknown,Good,No,No,Unknown,Unknown,Yes,Unknown,Unknown,Unknown,Yes,Yes,Unknown,Unknown,Unknown,Unknown,Unknown,Unknown,Unknown,Unknown,Unknown,Unknown,Unknown,Unknown,Unknown,Unknown,Unknown,Unknown,Unknown,Yes,Yes,Yes,Unknown,Limited,Unknown,Unknown,59.583333,5.15
19970,Alaska -- 19080,Bear Island, ,3.4,0,0,0,0,0,0,Very Small,Coastal (Natural),Unknown,Fair,No,No,Unknown,Unknown,Unknown,Unknown,Unknown,Unknown,Unknown,Yes,Unknown,Unknown,Unknown,Unknown,Unknown,Unknown,Unknown,Unknown,Unknown,Unknown,Unknown,Unknown,Unknown,Unknown,Unknown,Unknown,Unknown,Unknown,Unknown,Unknown,Unknown,Unknown,Unknown,Unknown,58.45,-152.683333
20270,Alaska Continued -- 20185,Koggiung, ,4.3,0,0,0,0,0,0,Very Small,Coastal (Natural),Unknown,Fair,No,No,Unknown,Unknown,Unknown,Unknown,Unknown,Unknown,Yes,Yes,Unknown,Unknown,Unknown,Unknown,Unknown,Unknown,Unknown,Unknown,Unknown,Unknown,Unknown,Unknown,Unknown,Unknown,Unknown,Unknown,Unknown,Unknown,Yes,Unknown,Unknown,Limited,Unknown,Small,58.966667,-156.916667
20350,Alaska Continued -- 20185,Hamilton, ,0.6,0,0,0,0,0,0,Very Small,River (Natural),Unknown,Fair,Unknown,Unknown,Unknown,Unknown,Unknown,Unknown,Unknown,Unknown,Unknown,Unknown,Unknown,Unknown,Unknown,Unknown,Unknown,Unknown,Unknown,Unknown,Unknown,Unknown,Unknown,Unknown,Unknown,Unknown,Unknown,Unknown,Unknown,Yes,Unknown,Unknown,Yes,Unknown,Unknown,Unknown,62.9,-163.916667
5150,Canada Lake Superior -- 5120,Gargantua, ,0,3.4,12.5,1.8,0,0,0,Very Small,Coastal (Natural),Unknown,Good,No,No,Unknown,Unknown,Unknown,Unknown,Unknown,Unknown,Yes,Unknown,Unknown,Unknown,Unknown,Unknown,Unknown,Unknown,Unknown,Unknown,Yes,Unknown,Unknown,Unknown,Unknown,Unknown,Unknown,Unknown,Unknown,Unknown,Yes,Unknown,Unknown,Unknown,Unknown,Unknown,47.566667,-84.966667
42415,Greece East Coast -- 42010,Larimna,Larmes,2,11,9.4,11,0,0,0,Very Small,Coastal (Natural),Unknown,Good,No,No,Unknown,Unknown,Unknown,Unknown,Unknown,Unknown,Unknown,Unknown,Unknown,Unknown,Unknown,Unknown,Unknown,Unknown,Unknown,Unknown,Unknown,Unknown,Unknown,Unknown,Unknown,Unknown,Unknown,Unknown,Unknown,Unknown,Unknown,Unknown,Unknown,Unknown,Unknown,Unknown,38.566667,23.283333
31895,Scotland East Coast -- 31870,Bird Port, ,6,1.8,4.9,9.4,0,0,0,Very Small,River (Natural),Unknown,Poor,Yes,Unknown,Unknown,Unknown,Unknown,Yes,Unknown,Unknown,Yes,Unknown,Unknown,Unknown,Unknown,Unknown,Unknown,Unknown,Unknown,Unknown,Yes,Yes,Unknown,Yes,Unknown,Unknown,Unknown,Unknown,Unknown,Yes,Yes,Yes,Yes,Limited,Unknown,Small,51.566667,-2.966667
38420,Spain SE Coast -- 38340,Hornillo, ,1,14,23.2,4.9,0,0,0,Very Small,Coastal (Natural),Unknown,Fair,Unknown,Unknown,Unknown,Unknown,Unknown,Yes,Yes,Unknown,Yes,Unknown,Unknown,Unknown,Unknown,Unknown,Unknown,Unknown,Unknown,Unknown,Yes,Unknown,Unknown,Unknown,Unknown,Unknown,Yes,Unknown,Unknown,Unknown,Unknown,Unknown,Unknown,Unknown,Unknown,Unknown,37.4,-1.55
40245,Italy -- 39125,Melilli Oil Terminal, ,1,21.6,23.2,0,0,0,0,Very Small,Open Roadstead,Unknown,Fair,No,No,Unknown,Unknown,Unknown,Yes,Yes,Unknown,Yes,Unknown,Unknown,Unknown,Unknown,Unknown,Unknown,Unknown,Unknown,Unknown,Unknown,Unknown,Unknown,Unknown,Unknown,Unknown,Unknown,Unknown,Unknown,Unknown,Yes,Yes,Yes,Limited,Unknown,Small,37.116667,15.25
43940,Ukraine -- 43620,Henichesk, ,1,4.9,4.9,1.8,0,0,0,Very Small,Coastal (Natural),Unknown,Fair,No,No,Unknown,Unknown,Unknown,Yes,Unknown,Yes,Yes,Yes,Unknown,Unknown,Unknown,Unknown,Unknown,Unknown,Unknown,Unknown,Yes,Unknown,Unknown,Unknown,Unknown,Unknown,Unknown,Unknown,Unknown,Unknown,Yes,Yes,Unknown,Limited,Unknown,Unknown,46.166667,34.816667
48464,Iran -- 48410,Barkan Oil-loading Terminal,Bahregan Oil Center,2,17.1,23.2,0,0,0,0,Very Small,Open Roadstead,Unknown,Poor,Yes,Yes,Unknown,Unknown,Unknown,Yes,Yes,Unknown,Unknown,Unknown,Unknown,Unknown,Unknown,Unknown,Unknown,Unknown,Unknown,Unknown,Yes,No,Unknown,Unknown,Unknown,Unknown,Unknown,Unknown,Unknown,Yes,No,Yes,Unknown,None,Unknown,Unknown,29.733333,50.166667
55500,Norfolk Island -- 55490,Kingston, ,4,1.8,17.1,1.8,0,0,0,Very Small,Open Roadstead,Unknown,Poor,Yes,Yes,Unknown,Unknown,Unknown,Yes,Yes,Unknown,Unknown,Yes,Unknown,Unknown,Unknown,Unknown,Unknown,Unknown,Unknown,Unknown,Yes,Unknown,Unknown,Yes,Unknown,Unknown,Unknown,Unknown,Unknown,Yes,No,No,No,Unknown,Unknown,Unknown,-29.066667,167.95
51290,Lesser Sunda Islands -- 51250,Labuhanhaji,Labuan Hadji,8,1.8,14,1.8,0,0,0,Very Small,Open Roadstead,Unknown,Poor,No,No,Unknown,Unknown,Unknown,Unknown,Unknown,Unknown,Unknown,Yes,Unknown,Unknown,Unknown,Unknown,Unknown,Unknown,Unknown,Unknown,Yes,Unknown,Unknown,Unknown,Unknown,Unknown,Unknown,Unknown,Unknown,Yes,Yes,Unknown,No,Emergency Only,Unknown,Unknown,-8.7,116.566667
57415,Malaysia -- 57400,Kirteh Oil Terminal, ,0,11,21.6,0,0,0,0,Small,Open Roadstead,Unknown,Fair,Yes,Yes,Unknown,Unknown,Unknown,Yes,Yes,Unknown,Yes,Unknown,Unknown,Unknown,Unknown,Unknown,Unknown,Unknown,Unknown,Unknown,No,No,Unknown,Yes,Unknown,Unknown,Unknown,Unknown,Unknown,No,No,No,No,None,Unknown,Unknown,4.566667,103.466667
47942,Sudan -- 47910,Al Khair Oil Terminal, ,0,0,0,0,0,0,0,Small,Coastal (Natural),Unknown,Unknown,Unknown,Unknown,Unknown,Unknown,Yes,Yes,Unknown,Unknown,Unknown,Unknown,Unknown,Unknown,Unknown,Unknown,Unknown,Unknown,Unknown,Unknown,Unknown,Unknown,Unknown,Unknown,Unknown,Unknown,Unknown,Unknown,Unknown,Unknown,Unknown,Unknown,Unknown,Unknown,Unknown,Unknown,19.583333,37.25
18915,Canada West Coast -- 18080,Bella Bella, ,3,23.2,23.2,6.4,0,0,0,Very Small,Coastal (Natural),Unknown,Fair,Yes,No,Unknown,Unknown,Unknown,Unknown,Unknown,Unknown,Yes,Yes,Unknown,Unknown,Unknown,Unknown,Unknown,Unknown,Unknown,Unknown,Yes,Unknown,Yes,Unknown,Unknown,Unknown,Unknown,Unknown,Unknown,Yes,Yes,Unknown,Yes,Unknown,Unknown,Unknown,52.166667,-128.15
19290,Alaska -- 19080,Fishermans Harbor, ,2.7,3.4,3.4,4.9,0,0,0,Very Small,Coastal (Natural),Unknown,Good,No,No,Unknown,Unknown,Unknown,Unknown,Unknown,Unknown,Yes,Unknown,Unknown,Unknown,Unknown,Unknown,Unknown,Unknown,Unknown,Unknown,Unknown,Unknown,Unknown,Unknown,Unknown,Unknown,Unknown,Unknown,Unknown,Unknown,Yes,Unknown,Unknown,Unknown,Unknown,Unknown,55.966667,-133.8
5970,Cape Breton Island -- 5860,Grand Narrows, ,0,7.9,12.5,3.4,0,0,0,Very Small,Coastal (Natural),Unknown,Excellent,No,No,Unknown,Unknown,Unknown,Unknown,Unknown,Yes,Yes,Unknown,Unknown,Unknown,Unknown,Unknown,Unknown,Unknown,Unknown,Unknown,Unknown,Unknown,Unknown,Unknown,Unknown,Unknown,Unknown,Unknown,Unknown,Unknown,Unknown,Unknown,Unknown,Unknown,Unknown,Unknown,45.95,-60.783333
6670,United States E Coast -- 6585,Corea, ,3.4,1.8,1.8,1.8,0,0,0,Very Small,Coastal (Natural),Unknown,Fair,Yes,Yes,Unknown,Unknown,Yes,Unknown,Unknown,Unknown,Yes,Unknown,Unknown,Unknown,Unknown,Unknown,Unknown,Unknown,Unknown,Unknown,Unknown,Unknown,Unknown,Unknown,Unknown,Unknown,Unknown,Unknown,Unknown,Yes,Yes,Yes,Yes,Unknown,Unknown,Unknown,44.4,-67.966667
7315,United States E Coast -- 6585,Hyannis Port, ,0.9,1.8,4.9,1.8,0,0,0,Very Small,Coastal (Breakwater),Unknown,Fair,No,No,Unknown,Unknown,Yes,Unknown,Unknown,Yes,Yes,Unknown,Unknown,Unknown,Unknown,Unknown,Unknown,Unknown,Unknown,Unknown,Yes,Unknown,Unknown,Unknown,Unknown,Unknown,Unknown,Unknown,Unknown,Yes,Yes,Unknown,Yes,Unknown,Unknown,Unknown,41.633333,-70.3
58630,Philippine Islands -- 57960,Laoang, ,4,3.4,12.5,1.8,0,0,0,Very Small,River (Natural),Unknown,Fair,Unknown,Unknown,Unknown,Unknown,Unknown,Unknown,Unknown,Unknown,Unknown,Yes,Unknown,Unknown,Unknown,Unknown,Unknown,Unknown,Unknown,Unknown,Unknown,Unknown,Unknown,Unknown,Unknown,Unknown,Unknown,Unknown,Unknown,Yes,Yes,Unknown,Yes,Unknown,Unknown,Unknown,12.566667,125.016667
59550,Philippine Islands -- 57960,Margosatubig, ,5,17.1,23.2,3.4,0,0,0,Very Small,Coastal (Natural),Unknown,Excellent,Unknown,Unknown,Unknown,Unknown,Unknown,Yes,Unknown,Unknown,Unknown,Yes,Unknown,Unknown,Unknown,Unknown,Unknown,Unknown,Unknown,Unknown,Yes,Unknown,Unknown,Unknown,Unknown,Unknown,Unknown,Unknown,Unknown,Yes,Yes,Unknown,Unknown,Unknown,Unknown,Unknown,7.583333,123.166667
60720,Russia -- 60530,Bukhta Gaydamak,Gaydamak,0,12.5,12.5,3.4,0,0,0,Very Small,Coastal (Natural),Unknown,Poor,Unknown,Unknown,Unknown,Unknown,Yes,Yes,Unknown,Yes,Unknown,Yes,Unknown,Unknown,Unknown,Unknown,Unknown,Unknown,Unknown,Unknown,Yes,Unknown,Unknown,Unknown,Unknown,Unknown,Unknown,Unknown,Unknown,Yes,Unknown,Unknown,Unknown,Limited,Unknown,Unknown,42.866667,132.683333
4720,US Lake Michigan -- 4570,Saugatuck, ,0,1.8,1.8,1.8,0,0,0,Very Small,River (Natural),Unknown,Good,No,No,Unknown,Unknown,Unknown,Yes,Unknown,Unknown,Yes,Unknown,Unknown,Unknown,Unknown,Unknown,Unknown,Unknown,Unknown,Unknown,Yes,Unknown,Unknown,Unknown,Unknown,Unknown,Unknown,Unknown,Unknown,Yes,Yes,Yes,Yes,Moderate,Unknown,Small,42.666667,-86.2
19930,Alaska -- 19080,Dry Spruce Bay, ,3.4,0,23.2,7.9,0,0,0,Very Small,Coastal (Natural),Unknown,Good,No,No,Unknown,Unknown,Unknown,Unknown,Unknown,Unknown,Yes,Yes,Unknown,Unknown,Unknown,Unknown,Unknown,Unknown,Unknown,Unknown,Unknown,Unknown,Unknown,Unknown,Unknown,Unknown,Unknown,Unknown,Unknown,Yes,Yes,Yes,Yes,Unknown,Unknown,Unknown,57.933333,-153.033333
19980,Alaska -- 19080,Hogg Island, ,3.4,0,0,0,0,0,0,Very Small,Coastal (Natural),Unknown,Fair,No,No,Unknown,Unknown,Unknown,Unknown,Unknown,Unknown,Unknown,Yes,Unknown,Unknown,Unknown,Unknown,Unknown,Unknown,Unknown,Unknown,Unknown,Unknown,Unknown,Unknown,Unknown,Unknown,Unknown,Unknown,Unknown,Unknown,Unknown,Unknown,Unknown,Unknown,Unknown,Unknown,58.466667,-152.683333
20410,Alaska Continued -- 20185,Grantley Harbor, ,0.3,1.8,6.4,0,0,0,0,Very Small,Open Roadstead,Unknown,Good,Yes,No,Unknown,Unknown,Unknown,Unknown,Yes,Unknown,Unknown,Yes,Unknown,Unknown,Unknown,Unknown,Unknown,Unknown,Unknown,Unknown,Unknown,Unknown,Unknown,Unknown,Unknown,Unknown,Unknown,Unknown,Unknown,Yes,Yes,Unknown,Yes,Unknown,Unknown,Unknown,65.266667,-166.333333
5070,US Lake Michigan -- 4570,Nahma, ,0,3.4,4.9,3.4,0,0,0,Very Small,Coastal (Natural),Unknown,Fair,No,No,Unknown,Unknown,Yes,Yes,Unknown,Unknown,Yes,Unknown,Unknown,Unknown,Unknown,Unknown,Unknown,Unknown,Unknown,Unknown,Yes,Unknown,Unknown,Unknown,Unknown,Unknown,Unknown,Unknown,Unknown,Yes,Yes,Unknown,Unknown,Unknown,Unknown,Unknown,45.833333,-86.666667
44270,Russia -- 44030,Adler,Mezyumata,0,23.2,9.4,3.4,0,0,0,Very Small,Open Roadstead,Unknown,Poor,No,No,Unknown,Unknown,Unknown,Yes,Unknown,Yes,Unknown,Unknown,Unknown,Unknown,Unknown,Unknown,Unknown,Unknown,Unknown,Unknown,Yes,Unknown,Unknown,Unknown,Unknown,Unknown,Unknown,Unknown,Unknown,Yes,Yes,Yes,Unknown,Unknown,Unknown,Unknown,43.433333,39.933333
45635,Algeria -- 45470,Arzew El Djedid, ,0,7.9,23.2,0,0,0,0,Small,Coastal (Breakwater),Unknown,Poor,Unknown,Unknown,Unknown,Unknown,No,Yes,Yes,Yes,Yes,Unknown,Unknown,Unknown,Unknown,Unknown,Unknown,Unknown,Unknown,Unknown,Yes,Yes,Unknown,Unknown,Unknown,Unknown,Unknown,Unknown,Unknown,Yes,Yes,Yes,Yes,None,Unknown,Small,35.816667,-0.25
45822,Senegal -- 45817,Karabane,Carabane,1,3.4,9.4,3.4,0,0,0,Very Small,River (Natural),Unknown,Good,Unknown,Yes,Unknown,Unknown,Yes,Unknown,Unknown,Unknown,Yes,Unknown,Unknown,Unknown,Unknown,Unknown,Unknown,Unknown,Unknown,Unknown,Unknown,Unknown,Unknown,Unknown,Unknown,Unknown,Unknown,Unknown,Unknown,Unknown,Unknown,Unknown,Unknown,Unknown,Unknown,Unknown,12.566667,-16.666667
46335,Equatorial Guinea -- 46300,Ceiba Terminal, ,1,0,23.2,0,0,0,0,Very Small,Open Roadstead,Unknown,Poor,Unknown,Yes,Unknown,Unknown,Yes,Yes,Unknown,Unknown,Unknown,Yes,Unknown,Unknown,Unknown,Unknown,Unknown,Unknown,Unknown,Unknown,Yes,No,Unknown,Unknown,Unknown,Unknown,Unknown,Unknown,Unknown,No,No,No,No,None,Unknown,Unknown,1.416667,9.233333
46710,Tristan Island -- 46700,Edinburgh Of The Seven Seas,Settlement Of Edinburgh,2,23.2,23.2,0,0,0,0,Very Small,Open Roadstead,Unknown,Poor,Unknown,Unknown,Unknown,Unknown,Yes,Yes,Unknown,Unknown,Unknown,Yes,Unknown,Unknown,Unknown,Unknown,Unknown,Unknown,Unknown,Unknown,Yes,No,Unknown,Unknown,Unknown,Unknown,Unknown,Unknown,Unknown,Unknown,Unknown,Unknown,Unknown,Unknown,Unknown,Unknown,-37.05,-12.3
14175,Chile -- 14070,Caleta Mina Elena,Mina Elena,0,0,7.9,0,0,0,0,Very Small,Coastal (Natural),Unknown,Fair,No,No,Unknown,Unknown,Unknown,Unknown,Unknown,Unknown,Unknown,Yes,Unknown,Unknown,Unknown,Unknown,Unknown,Unknown,Unknown,Unknown,Unknown,Unknown,Unknown,Unknown,Unknown,Unknown,Unknown,Unknown,Unknown,Unknown,Yes,Unknown,Unknown,Unknown,Unknown,Unknown,-52.683333,-71.9
19100,Alaska -- 19080,Hidden Inlet, ,4.3,0,0,6.4,0,0,0,Very Small,Canal or Lake,Unknown,Fair,Yes,Yes,Unknown,Unknown,Unknown,Unknown,Unknown,Unknown,Yes,Unknown,Unknown,Unknown,Unknown,Unknown,Unknown,Unknown,Unknown,Unknown,Unknown,Unknown,Unknown,Unknown,Unknown,Unknown,Unknown,Unknown,Unknown,Yes,Unknown,Yes,Unknown,Unknown,Unknown,Unknown,54.95,-130.333333
19120,Alaska -- 19080,George Inlet, ,4,0,0,7.9,0,0,0,Very Small,Coastal (Natural),Unknown,Fair,No,No,Unknown,Unknown,Unknown,Unknown,Unknown,Unknown,Yes,Unknown,Unknown,Unknown,Unknown,Unknown,Unknown,Unknown,Unknown,Unknown,Unknown,Unknown,Unknown,Unknown,Unknown,Unknown,Unknown,Unknown,Unknown,Unknown,Yes,Unknown,Unknown,Unknown,Unknown,Unknown,55.383333,-131.466667
19200,Alaska -- 19080,Burnett Inlet, ,4.3,0,11,3.4,0,0,0,Very Small,Coastal (Natural),Unknown,Fair,No,No,Unknown,Unknown,Unknown,Unknown,Unknown,Unknown,Yes,Yes,Unknown,Unknown,Unknown,Unknown,Unknown,Unknown,Unknown,Unknown,Unknown,Unknown,Unknown,Unknown,Unknown,Unknown,Unknown,Unknown,Unknown,Unknown,Unknown,Unknown,Unknown,Unknown,Unknown,Unknown,56.066667,-132.466667
19600,Alaska -- 19080,Letnikof Cove, ,4.3,0,11,6.4,0,0,0,Very Small,Coastal (Natural),Unknown,Good,No,No,Unknown,Unknown,Unknown,Unknown,Unknown,Unknown,Yes,Yes,Unknown,Unknown,Unknown,Unknown,Unknown,Unknown,Unknown,Unknown,Unknown,Unknown,Unknown,Unknown,Unknown,Unknown,Unknown,Unknown,Unknown,Unknown,Yes,Unknown,Unknown,Unknown,Unknown,Unknown,59.183333,-135.4
19710,Alaska -- 19080,Crab Bay, ,2.7,0,0,7.9,0,0,0,Very Small,Coastal (Natural),Unknown,Fair,No,No,Unknown,Unknown,Unknown,Unknown,Unknown,Unknown,Yes,Unknown,Unknown,Unknown,Unknown,Unknown,Unknown,Unknown,Unknown,Unknown,Unknown,Unknown,Unknown,Unknown,Unknown,Unknown,Unknown,Unknown,Unknown,Unknown,Yes,Unknown,Unknown,Unknown,Unknown,Unknown,60.066667,-148
6970,United States E Coast -- 6585,Monhegan, ,2.7,3.4,3.4,3.4,0,0,0,Very Small,Coastal (Natural),Unknown,Poor,Yes,No,Unknown,Unknown,Yes,Unknown,Unknown,Unknown,Yes,Unknown,Unknown,Unknown,Unknown,Unknown,Unknown,Unknown,Unknown,Unknown,Unknown,Unknown,Unknown,Unknown,Unknown,Unknown,Unknown,Unknown,Unknown,Yes,Unknown,Unknown,Unknown,Unknown,Unknown,Unknown,43.766667,-69.316667
6710,United States E Coast -- 6585,Northeast Harbor, ,0,3.4,3.4,1.8,0,0,0,Very Small,Coastal (Natural),Unknown,Fair,No,No,Unknown,Unknown,Yes,Unknown,Unknown,Unknown,Yes,Unknown,Unknown,Unknown,Unknown,Unknown,Unknown,Unknown,Unknown,Unknown,Unknown,Unknown,Yes,Unknown,Unknown,Unknown,Unknown,Unknown,Unknown,Yes,Yes,Unknown,Yes,Limited,Unknown,Unknown,44.3,-68.283333
6800,United States E Coast -- 6585,Bucks Harbor,South Brooksville,0,6.4,11,3.4,0,0,0,Very Small,Coastal (Natural),Unknown,Good,No,No,Unknown,Unknown,Yes,Unknown,Unknown,Unknown,Yes,Unknown,Unknown,Unknown,Unknown,Unknown,Unknown,Unknown,Unknown,Unknown,Unknown,Unknown,Unknown,Unknown,Unknown,Unknown,Unknown,Unknown,Unknown,Yes,Yes,Yes,Yes,Unknown,Unknown,Unknown,44.333333,-68.733333
6830,United States E Coast -- 6585,Matinicus, ,2.7,6.4,3.4,1.8,0,0,0,Very Small,Coastal (Breakwater),Unknown,Fair,Yes,No,Unknown,Unknown,Yes,Unknown,Unknown,Unknown,Yes,Unknown,Unknown,Unknown,Unknown,Unknown,Unknown,Unknown,Unknown,Unknown,Unknown,Unknown,Unknown,Unknown,Unknown,Unknown,Unknown,Unknown,Unknown,Yes,Yes,Yes,Yes,Unknown,Unknown,Unknown,43.866667,-68.883333
43780,Ukraine -- 43620,Balaklava, ,0,12.5,23.2,1.8,0,0,0,Very Small,Coastal (Natural),Unknown,Good,No,No,Unknown,Unknown,Unknown,Unknown,Unknown,Yes,Unknown,Unknown,Unknown,Unknown,Unknown,Unknown,Unknown,Unknown,Unknown,Unknown,Yes,Unknown,Unknown,Unknown,Unknown,Unknown,Unknown,Unknown,Unknown,Yes,Yes,Unknown,Unknown,Unknown,Unknown,Small,44.5,33.6
43810,Ukraine -- 43620,Alushta, ,0,12.5,23.2,3.4,0,0,0,Very Small,Open Roadstead,Unknown,Poor,No,Yes,Unknown,Unknown,Unknown,Unknown,Unknown,Unknown,Unknown,Unknown,Unknown,Unknown,Unknown,Unknown,Unknown,Unknown,Unknown,Unknown,Yes,Yes,Unknown,Unknown,Unknown,Unknown,Unknown,Unknown,Unknown,Yes,Yes,Unknown,Unknown,Unknown,Unknown,Unknown,44.683333,34.416667
49460,India East Coast -- 49310,Machilipatnam, ,1,14,14,12.5,0,0,0,Very Small,Open Roadstead,Unknown,Poor,No,Yes,Unknown,Unknown,Unknown,Yes,Unknown,Yes,Unknown,Yes,Unknown,Unknown,Unknown,Unknown,Unknown,Unknown,Unknown,Unknown,Yes,Unknown,Unknown,Unknown,Unknown,Unknown,Yes,Unknown,Unknown,Yes,Yes,Unknown,Unknown,Limited,Unknown,Small,16.15,81.166667
49875,Malaysia -- 49820,Malong Marine Terminal, ,3,23.2,23.2,0,0,0,0,Very Small,Open Roadstead,Unknown,Poor,Unknown,Unknown,Unknown,Unknown,Unknown,Yes,Unknown,Unknown,Unknown,Yes,Unknown,Unknown,Unknown,Unknown,Unknown,Unknown,Unknown,Unknown,No,No,Unknown,Yes,Unknown,Unknown,Unknown,Unknown,Unknown,No,No,No,Unknown,None,Unknown,Unknown,4.633333,104.816667
63090,Antarctica -- 63060,Admiralty Bay, ,0,23.2,23.2,0,0,0,0,Very Small,Coastal (Natural),Unknown,Good,Unknown,Unknown,Unknown,Unknown,Unknown,Unknown,Unknown,Unknown,Unknown,Yes,Unknown,Unknown,Unknown,Unknown,Unknown,Unknown,Unknown,Unknown,Unknown,Unknown,Unknown,Unknown,Unknown,Unknown,Unknown,Unknown,Unknown,Unknown,Yes,Unknown,Unknown,Unknown,Unknown,Unknown,-62.083333,-58.416667
63110,Antarctica -- 63060,Melchior Harbor, ,0,4.9,23.2,0,0,0,0,Very Small,Coastal (Natural),Unknown,Poor,Unknown,Yes,Unknown,Unknown,Unknown,Yes,Unknown,Unknown,Unknown,Yes,Unknown,Unknown,Unknown,Unknown,Unknown,Unknown,Unknown,Unknown,Unknown,Unknown,Unknown,Unknown,Unknown,Unknown,Unknown,Unknown,Unknown,Unknown,Yes,Unknown,Unknown,None,Unknown,Unknown,-64.316667,-63
7900,United States E Coast -- 6585,Grasselli, ,1.5,9.4,9.4,9.4,0,0,0,Small,River (Natural),Unknown,Good,No,No,Unknown,Unknown,Yes,Unknown,Yes,Yes,Yes,Unknown,Unknown,Unknown,Unknown,Unknown,Unknown,Unknown,Unknown,Unknown,Yes,Unknown,Unknown,Unknown,Unknown,Unknown,Unknown,Unknown,Yes,Yes,Yes,Unknown,Unknown,Unknown,Unknown,Unknown,40.616667,-74.2
543,Greenland East Coast -- 540,Kusanartoq, ,6,12.5,17.1,0,0,0,0,Small,Coastal (Natural),Unknown,Good,No,No,Unknown,Unknown,Unknown,Unknown,Unknown,Unknown,Unknown,Yes,Unknown,Unknown,Unknown,Unknown,Unknown,Unknown,Unknown,Unknown,Unknown,Unknown,Unknown,Unknown,Unknown,Unknown,No,Unknown,Unknown,Unknown,Yes,Unknown,Unknown,Emergency Only,Unknown,Unknown,61.766667,-42.216667
2350,Ottawa River -- 2270,Carillon, ,0,1.8,9.4,1.8,0,0,0,Very Small,River (Natural),Unknown,Excellent,Unknown,Unknown,Unknown,Unknown,Unknown,Unknown,Unknown,Unknown,Yes,Unknown,Unknown,Unknown,Unknown,Unknown,Unknown,Unknown,Unknown,Unknown,Unknown,Unknown,Unknown,Unknown,Unknown,Unknown,Unknown,Unknown,Unknown,Unknown,Unknown,Unknown,Unknown,Unknown,Unknown,Unknown,45.566667,-74.366667
4020,Canada Lake Huron -- 3640,Depot Harbour, ,0,6.4,6.4,6.4,0,0,0,Very Small,Coastal (Natural),Unknown,Excellent,Unknown,Unknown,Unknown,Unknown,Unknown,Unknown,Unknown,Yes,Yes,Unknown,Unknown,Unknown,Unknown,Unknown,Unknown,Unknown,Unknown,Unknown,Unknown,Unknown,Unknown,Unknown,Unknown,Unknown,Unknown,Unknown,Unknown,Yes,Yes,Unknown,Unknown,Unknown,Unknown,Unknown,45.316667,-80.1
44807,Italy -- 40345,Aksaz Limani, ,0,23.2,0,0,0,0,0,Small,Coastal (Natural),Unknown,Unknown,Unknown,Unknown,Unknown,Unknown,Unknown,Unknown,Yes,No,Yes,Unknown,Unknown,Unknown,Unknown,Unknown,Unknown,Unknown,Unknown,Unknown,Yes,Unknown,Unknown,Unknown,Unknown,Unknown,Unknown,Yes,Unknown,Yes,Yes,Yes,Yes,Limited,Small,Unknown,36.833333,28.383333
46239,Nigeria -- 46120,Egina Oil Terminal, ,0,23.2,23.2,7.9,0,0,0,Very Small,Open Roadstead,Unknown,Poor,No,Yes,Unknown,Unknown,Unknown,Unknown,Unknown,Unknown,Unknown,Unknown,Unknown,Unknown,Unknown,Unknown,Unknown,Unknown,Unknown,Unknown,Unknown,Unknown,Unknown,Unknown,Unknown,Unknown,Unknown,Unknown,Unknown,Unknown,Unknown,Unknown,Unknown,Unknown,Unknown,Unknown,3.066667,6.7
46452,Gabon -- 46410,Olowi Marine Terminal, ,0,0,0,0,0,0,0,Very Small,Open Roadstead,Unknown,Poor,Unknown,Yes,Unknown,Unknown,Unknown,Unknown,Unknown,Unknown,Unknown,Unknown,Unknown,Unknown,Unknown,Unknown,Unknown,Unknown,Unknown,Unknown,Unknown,Unknown,Unknown,Unknown,Unknown,Unknown,Unknown,Unknown,Unknown,Unknown,Unknown,Unknown,Unknown,Unknown,Unknown,Unknown,-3.133333,10.216667
47625,Madagascar -- 47350,Antsohim Bondrona, ,0,7.9,7.9,7.9,0,0,0,Very Small,Coastal (Natural),Unknown,Fair,Unknown,Unknown,Unknown,Unknown,Unknown,Yes,Unknown,Unknown,Unknown,Unknown,Unknown,Unknown,Unknown,Unknown,Unknown,Unknown,Unknown,Unknown,Yes,Unknown,Yes,Unknown,Unknown,Unknown,Yes,Unknown,Unknown,Yes,Yes,Yes,Yes,Limited,Unknown,Unknown,-13.083333,48.833333
51780,Indonesia - Borneo -- 51760,Lingkas, ,7,6.4,18.6,7.9,0,0,0,Small,Open Roadstead,Unknown,Good,Unknown,Unknown,Unknown,Unknown,Unknown,Yes,Yes,Unknown,Yes,Yes,Unknown,Unknown,Unknown,Unknown,Unknown,Unknown,Unknown,Unknown,Yes,No,Unknown,Yes,Unknown,Unknown,Yes,Unknown,Unknown,Yes,Yes,Yes,Unknown,Emergency Only,Unknown,Unknown,3.283333,117.6
53195,New Guinea SE Coast -- 53140,Discovery Bay, ,4,11,23.2,11,0,0,0,Very Small,Coastal (Natural),Unknown,Good,Unknown,Unknown,Unknown,Unknown,Unknown,Unknown,Unknown,Unknown,Yes,Unknown,Unknown,Unknown,Unknown,Unknown,Unknown,Unknown,Unknown,Unknown,Unknown,Unknown,Unknown,Yes,Unknown,Unknown,Unknown,Unknown,Unknown,Unknown,Unknown,Unknown,Unknown,Emergency Only,Unknown,Unknown,-10.416667,150.416667
55270,New Zealand S Island -- 55260,Collingwood, ,7,1.8,9.4,1.8,0,0,0,Very Small,Coastal (Natural),Unknown,Good,Unknown,Unknown,Unknown,Unknown,Unknown,Unknown,Yes,Unknown,Yes,Unknown,Unknown,Unknown,Unknown,Unknown,Unknown,Unknown,Unknown,Unknown,Yes,Unknown,Unknown,Yes,Unknown,Unknown,Unknown,Unknown,Unknown,Unknown,Unknown,Yes,Yes,Limited,Unknown,Small,-40.683333,172.666667
56039,Tabuaeran Atoll (Fanning Island) -- 56037,English Harbor, ,0.3,23.2,17.1,0,0,0,0,Very Small,Coastal (Natural),Unknown,Fair,Yes,Yes,Unknown,Unknown,Unknown,Yes,Unknown,Unknown,Unknown,Yes,Unknown,Unknown,Unknown,Unknown,Unknown,Unknown,Unknown,Unknown,Yes,Unknown,Yes,Unknown,Unknown,Unknown,Yes,Unknown,Unknown,Unknown,Yes,Unknown,Unknown,Unknown,Unknown,Unknown,3.85,-159.366667
26990,Sweden Cont -- 24975,Gumbodahamn, ,0,4.9,4.9,4.9,0,0,0,Very Small,River (Basins),Unknown,Good,No,No,Unknown,Unknown,Unknown,Unknown,Unknown,Unknown,Yes,Yes,Unknown,Unknown,Unknown,Unknown,Unknown,Unknown,Unknown,Unknown,Unknown,Unknown,Unknown,Unknown,Unknown,Unknown,Unknown,Unknown,Unknown,Yes,Unknown,Unknown,Unknown,Unknown,Unknown,Unknown,64.233333,21.1
42180,Greece East Coast -- 42010,Ayios Nikolaos,Arapis,0,9.4,12.5,7.9,0,0,0,Very Small,Coastal (Breakwater),Unknown,Fair,No,No,Unknown,Unknown,Unknown,Unknown,Unknown,Unknown,Unknown,Unknown,Unknown,Unknown,Unknown,Unknown,Unknown,Unknown,Unknown,Unknown,Unknown,Unknown,Unknown,Unknown,Unknown,Unknown,Unknown,Unknown,Unknown,Unknown,Unknown,Unknown,Unknown,Major,Small,Unknown,37.983333,23.533333
43093,Kikladhes -- 42870,Akra Kavonisi, ,1,0,0,7.9,0,0,0,Very Small,Coastal (Breakwater),Unknown,Fair,Unknown,Unknown,Unknown,Unknown,Unknown,Yes,Unknown,Unknown,Unknown,Unknown,Unknown,Unknown,Unknown,Unknown,Unknown,Unknown,Unknown,Unknown,Yes,Yes,Unknown,Yes,Unknown,Unknown,Yes,Unknown,Unknown,Unknown,Yes,Unknown,Unknown,Limited,Small,Unknown,35.516667,23.633333
43384,Turkey Europe -- 43325,Borusan Fertilizer Jetty, ,0,0,23.2,6.4,0,0,0,Very Small,Coastal (Natural),Unknown,Fair,Unknown,Unknown,Unknown,Unknown,Unknown,Yes,Unknown,Unknown,Yes,Unknown,Unknown,Unknown,Unknown,Unknown,Unknown,Unknown,Unknown,Unknown,Yes,Unknown,Yes,Yes,Unknown,Unknown,Yes,Unknown,Unknown,Yes,Yes,Yes,Yes,Limited,Unknown,Unknown,40.416667,29.1
60030,China Continued -- 59850,Ankingcheng,Anking; Anqing; Huai Ning,16,3.4,6.4,1.8,0,0,0,Very Small,River (Natural),Unknown,Fair,Unknown,Unknown,Unknown,Unknown,Unknown,Yes,Yes,Yes,Yes,Yes,Unknown,Unknown,Unknown,Unknown,Unknown,Unknown,Unknown,Unknown,Yes,Unknown,Yes,Yes,Yes,Unknown,Yes,Unknown,Unknown,Yes,Yes,Yes,Yes,None,Unknown,Small,30.516667,117.033333
60350,South Korea -- 60315,Cheju Hang,Saishu,2,7.9,6.4,11,0,0,0,Small,Coastal (Breakwater),Unknown,Good,Yes,Unknown,Unknown,Unknown,Unknown,Yes,Yes,Unknown,Unknown,Yes,Unknown,Unknown,Unknown,Unknown,Unknown,Unknown,Unknown,Unknown,Yes,Unknown,Unknown,Unknown,Unknown,Unknown,Yes,Unknown,Unknown,Unknown,Yes,Yes,Unknown,Limited,Small,Small,33.516667,126.533333
61110,Japan -- 61100,Mombetsu Ko,Monbetu Ko,3,11,11,11,0,0,0,Very Small,Coastal (Breakwater),Unknown,Good,Unknown,Yes,Unknown,Unknown,Unknown,Unknown,Yes,Yes,Yes,Unknown,Unknown,Unknown,Unknown,Unknown,Unknown,Unknown,Unknown,Unknown,Yes,Unknown,Unknown,Unknown,Unknown,Unknown,Yes,Unknown,Unknown,Unknown,Yes,Unknown,Yes,Limited,Unknown,Unknown,44.35,143.35
63070,Antarctica -- 63060,Ellefsen Harbor, ,0,11,23.2,0,0,0,0,Very Small,Coastal (Natural),Unknown,Good,Unknown,Unknown,Unknown,Unknown,Unknown,Unknown,Unknown,Unknown,Unknown,Yes,Unknown,Unknown,Unknown,Unknown,Unknown,Unknown,Unknown,Unknown,Unknown,Unknown,Unknown,Unknown,Unknown,Unknown,Unknown,Unknown,Unknown,Unknown,Unknown,Unknown,Unknown,Unknown,Unknown,Unknown,-60.733333,-45.033333
63120,Antarctica -- 63060,Andersen Harbor, ,0,23.2,20.1,0,0,0,0,Very Small,Coastal (Natural),Unknown,Poor,Unknown,Yes,Unknown,Unknown,Unknown,Unknown,Unknown,Unknown,Unknown,Yes,Unknown,Unknown,Unknown,Unknown,Unknown,Unknown,Unknown,Unknown,Unknown,Unknown,Unknown,Unknown,Unknown,Unknown,Unknown,Unknown,Unknown,Unknown,Yes,Unknown,Unknown,Unknown,Unknown,Unknown,-64.316667,-62.933333
19750,Alaska -- 19080,Latouche, ,2.7,0,0,0,0,0,0,Very Small,Coastal (Natural),Unknown,Good,Unknown,Unknown,Unknown,Unknown,Unknown,Unknown,Unknown,Unknown,Unknown,Unknown,Unknown,Unknown,Unknown,Unknown,Unknown,Unknown,Unknown,Unknown,Unknown,Unknown,Unknown,Unknown,Unknown,Unknown,Unknown,Unknown,Unknown,Unknown,Unknown,Unknown,Unknown,Unknown,Unknown,Unknown,60.0505,-147.9042
11360,St Martin -- 11355,Baie Du Marigot, ,2,6.4,6.4,4.9,0,0,0,Very Small,Open Roadstead,Unknown,Good,No,No,Unknown,Unknown,Unknown,Yes,Yes,Unknown,Unknown,Yes,Unknown,Unknown,Unknown,Unknown,Unknown,Unknown,Unknown,Unknown,Yes,Unknown,Unknown,Unknown,Unknown,Unknown,Unknown,Unknown,Unknown,Unknown,Unknown,Unknown,Unknown,Unknown,Unknown,Unknown,18.066667,-63.083333
11372,St Martin -- 11355,Coles Bay Oil Terminal, ,1,0,11,0,0,0,0,Small,Open Roadstead,Unknown,Fair,No,No,Unknown,Unknown,Unknown,Yes,Yes,Unknown,Yes,Unknown,Unknown,Unknown,Unknown,Unknown,Unknown,Unknown,Unknown,Unknown,Yes,No,Unknown,Unknown,Unknown,Unknown,Unknown,Unknown,Unknown,Unknown,No,Unknown,Unknown,None,Unknown,Unknown,18.016667,-63.083333
48057,Egypt Red Sea -- 47950,Zafarana Terminal, ,0,0,23.2,0,0,0,0,Very Small,Open Roadstead,Unknown,Poor,Unknown,Unknown,Unknown,Unknown,Unknown,Yes,Yes,Unknown,Unknown,Unknown,Unknown,Unknown,Unknown,Unknown,Unknown,Unknown,Unknown,Unknown,Unknown,Unknown,Unknown,Unknown,Unknown,Unknown,Yes,Unknown,Unknown,Unknown,Unknown,Unknown,Unknown,Unknown,Unknown,Unknown,29.166667,32.683333
60205,China Continued -- 59850,Suizhang Gang, ,0,11,0,12.5,0,0,0,Very Small,Open Roadstead,Unknown,None,No,No,Unknown,Unknown,Unknown,Unknown,Unknown,Unknown,Yes,Yes,Unknown,Unknown,Unknown,Unknown,Unknown,Unknown,Unknown,Unknown,Unknown,Unknown,Unknown,Unknown,Unknown,Unknown,Unknown,Unknown,Unknown,Unknown,Unknown,Unknown,Unknown,Unknown,Unknown,Unknown,40.066667,121.05
55960,Iles Tuamotu -- 55860,Port Rikitea, ,0.6,7.9,23.2,1.8,0,0,0,Very Small,Coastal (Natural),Unknown,Fair,No,No,Unknown,Unknown,Unknown,Yes,Yes,Unknown,Yes,Unknown,Unknown,Unknown,Unknown,Unknown,Unknown,Unknown,Unknown,Unknown,Yes,Unknown,Unknown,Unknown,Unknown,Unknown,Unknown,Unknown,Unknown,No,Yes,No,No,Unknown,Unknown,Unknown,-23.116667,-134.966667
57900,Taiwan -- 57880,Su-Ao,Su Ao Kang,2,14,20.1,12.5,0,0,0,Medium,Coastal (Breakwater),Unknown,Good,No,No,Unknown,Unknown,Yes,Yes,Yes,Yes,Yes,Unknown,Unknown,Unknown,Unknown,Unknown,Unknown,Unknown,Unknown,Unknown,Yes,Yes,Unknown,Yes,Unknown,Unknown,Yes,Unknown,Unknown,Unknown,Yes,Yes,Yes,Limited,Small,Medium,24.6,121.866667
60870,Sakhalin -- 60840,Vitaz Marine Terminal, ,0,0,23.2,0,0,0,0,Very Small,Open Roadstead,Unknown,Poor,Yes,Yes,Unknown,Unknown,Yes,Yes,No,Unknown,Unknown,Yes,Unknown,Unknown,Unknown,Unknown,Unknown,Unknown,Unknown,Unknown,Yes,No,Unknown,Unknown,Unknown,Unknown,Unknown,Unknown,Unknown,No,No,No,Unknown,Unknown,Unknown,Unknown,52.7,143.55
60010,China Continued -- 59850,Wu Hu, ,1,6.4,7.9,4.9,0,0,0,Small,River (Natural),Unknown,Fair,Unknown,Unknown,Unknown,Unknown,Unknown,Yes,Yes,Yes,Yes,Unknown,Unknown,Unknown,Unknown,Unknown,Unknown,Unknown,Unknown,Unknown,Yes,Unknown,Yes,Yes,Yes,Unknown,Unknown,Unknown,Unknown,Yes,Yes,Unknown,Unknown,None,Unknown,Unknown,31.333333,118.366667
49685,Burma (Myanmar) -- 49610,Yetagun Marine Terminal, ,1,23.2,0,0,0,0,0,Very Small,Open Roadstead,Unknown,Poor,Yes,Yes,Unknown,Unknown,Yes,Yes,No,Unknown,Unknown,Yes,Unknown,Unknown,Unknown,Unknown,Unknown,Unknown,Unknown,Unknown,Yes,No,Unknown,Unknown,Unknown,Unknown,Unknown,Unknown,Unknown,Unknown,No,No,No,None,Unknown,Unknown,13.05,96.85
48272,United Arab Emirates -- 48260,Sharjah Offshore Terminal,Hamriyah Oil Terminal,1,0,11,0,0,0,0,Small,Open Roadstead,Unknown,Poor,Unknown,Unknown,Unknown,Unknown,Unknown,Yes,Yes,Unknown,Unknown,Yes,Unknown,Unknown,Unknown,Unknown,Unknown,Unknown,Unknown,Unknown,Yes,No,Unknown,Unknown,Unknown,Unknown,Unknown,Unknown,Unknown,No,No,No,No,None,Unknown,Unknown,25.583333,55.4
47989,Egypt Red Sea -- 47950,Zeit Bay Lpg Terminal, ,1,3.4,20.1,0,0,0,0,Very Small,Open Roadstead,Unknown,Poor,Yes,Yes,Unknown,Unknown,Unknown,Yes,Unknown,Unknown,Unknown,Unknown,Unknown,Unknown,Unknown,Unknown,Unknown,Unknown,Unknown,Unknown,Yes,Unknown,Unknown,Yes,Unknown,Unknown,Yes,Unknown,Unknown,No,No,No,No,None,Unknown,Unknown,27.8,33.566667
51800,Indonesia - Borneo -- 51760,Tanjungredeb,Tandjung Redeb,0,4.9,6.4,4.9,0,0,0,Small,River (Natural),Unknown,Good,Unknown,Unknown,Unknown,Unknown,Unknown,Unknown,Unknown,Unknown,Yes,Unknown,Unknown,Unknown,Unknown,Unknown,Unknown,Unknown,Unknown,Unknown,Unknown,Unknown,Unknown,Unknown,Unknown,Unknown,Unknown,Unknown,Unknown,Yes,Unknown,Unknown,Unknown,Limited,Unknown,Unknown,2.15,117.483333
59575,Philippine Islands -- 57960,Santa Clara, ,0,9.4,12.5,6.4,0,0,0,Very Small,Coastal (Natural),Unknown,Fair,Unknown,Unknown,Unknown,Unknown,Unknown,Unknown,Yes,Unknown,Yes,Unknown,Unknown,Unknown,Unknown,Unknown,Unknown,Unknown,Unknown,Unknown,Yes,Unknown,Unknown,Unknown,Unknown,Unknown,Unknown,Unknown,Unknown,Yes,Unknown,Unknown,Unknown,Unknown,Unknown,Unknown,7.783333,122.683333
11048,Dominican Republic -- 10950,Punta Nizao Oil Terminal, ,1,0,12.5,0,0,0,0,Small,Open Roadstead,Unknown,Fair,No,No,Unknown,Unknown,Unknown,Unknown,Unknown,Unknown,Unknown,Unknown,Unknown,Unknown,Unknown,Unknown,Unknown,Unknown,Unknown,Unknown,No,Unknown,Unknown,Unknown,Unknown,Unknown,Unknown,Unknown,Unknown,No,No,No,No,None,Unknown,Unknown,18.2,-70.2
57490,Cambodia -- 57478,Phsar Ream,Ream,0,4.9,11,3.4,0,0,0,Very Small,Coastal (Natural),Unknown,Fair,No,Yes,Unknown,Unknown,Unknown,Unknown,Unknown,Yes,Unknown,Yes,Unknown,Unknown,Unknown,Unknown,Unknown,Unknown,Unknown,Unknown,Unknown,Unknown,Unknown,Unknown,Unknown,Unknown,Unknown,Unknown,Unknown,Unknown,Yes,Unknown,Unknown,Emergency Only,Unknown,Unknown,10.5,103.6
50231,Indonesia -- 50020,Ramba, ,0,4.9,0,4.9,0,0,0,Very Small,Open Roadstead,Unknown,Poor,Unknown,Unknown,Unknown,Unknown,Unknown,Yes,Unknown,Unknown,Yes,Unknown,Unknown,Unknown,Unknown,Unknown,Unknown,Unknown,Unknown,Unknown,Yes,Unknown,Unknown,Unknown,Unknown,Unknown,Unknown,Unknown,Unknown,Unknown,Yes,Yes,Unknown,Unknown,Unknown,Unknown,-2.616667,104.133333
56330,Wake Island -- 56329,Wake Island, ,1,23.2,0,0,0,0,0,Very Small,Coastal (Natural),Unknown,Fair,Yes,Yes,Unknown,Unknown,Unknown,Unknown,Yes,Unknown,Unknown,Yes,Unknown,Unknown,Unknown,Unknown,Unknown,Unknown,Unknown,Unknown,Yes,No,Yes,Unknown,Unknown,Unknown,No,No,No,No,No,No,Yes,Limited,Unknown,Small,19.283333,166.616667
61090,Kuril Islands -- 61070,Shakotan, ,3,9.4,14,3.4,0,0,0,Very Small,Coastal (Natural),Unknown,Good,Unknown,Unknown,Unknown,Unknown,Unknown,Yes,Unknown,Unknown,Unknown,Yes,Unknown,Unknown,Unknown,Unknown,Unknown,Unknown,Unknown,Unknown,Yes,Unknown,Unknown,Unknown,Unknown,Unknown,Unknown,Unknown,Unknown,Unknown,Unknown,Unknown,Unknown,Unknown,Unknown,Unknown,43.866667,146.833333
50932,Jawa -- 50920,Tanjung Gerem, ,0,12.5,23.2,0,0,0,0,Very Small,Open Roadstead,Unknown,Poor,Yes,Yes,Unknown,Unknown,Unknown,Unknown,Unknown,Unknown,Unknown,Unknown,Unknown,Unknown,Unknown,Unknown,Unknown,Unknown,Unknown,Unknown,Unknown,Unknown,Unknown,Unknown,Unknown,Unknown,Unknown,Unknown,Unknown,Unknown,Yes,Yes,Yes,Unknown,Unknown,Unknown,-5.966667,105.983333
51680,Sabah -- 51650,Victoria,Labuan,2,6.4,0,6.4,0,0,0,Small,Coastal (Natural),Unknown,Excellent,Yes,Yes,Unknown,Unknown,Yes,Yes,Yes,Unknown,Yes,Unknown,Unknown,Unknown,Unknown,Unknown,Unknown,Unknown,Unknown,Unknown,Yes,Unknown,Unknown,Yes,Unknown,Unknown,Yes,Yes,Unknown,Unknown,Yes,Yes,Yes,Major,Medium,Small,5.283333,115.233333
48341,Saudi Arabia Continued -- 48330,Ras Al Ghar, ,0,9.4,9.4,11,0,0,0,Very Small,Coastal (Breakwater),Unknown,Fair,Yes,Yes,Unknown,Unknown,Unknown,Unknown,Unknown,Unknown,Unknown,Unknown,Unknown,Unknown,Unknown,Unknown,Unknown,Unknown,Unknown,Unknown,Yes,No,Unknown,Unknown,Unknown,Unknown,Unknown,Unknown,Unknown,Unknown,Unknown,Unknown,Unknown,Unknown,Unknown,Unknown,26.9,49.866667
7890,United States E Coast -- 6585,Port Socony, ,1.5,9.4,9.4,7.9,0,0,0,Small,River (Natural),Unknown,Good,No,No,Unknown,Unknown,Yes,Yes,Yes,Yes,Yes,Unknown,Unknown,Unknown,Unknown,Unknown,Unknown,Unknown,Unknown,Unknown,Yes,Yes,Yes,Unknown,Unknown,Unknown,Yes,Yes,Yes,Yes,Yes,Yes,Yes,Limited,Unknown,Unknown,40.55,-74.25
8890,US Gulf Coast -- 8650,Tri-City Port, ,0,3.4,0,0,0,0,0,Large,River (Natural),Unknown,Excellent,No,No,Unknown,Unknown,Yes,Yes,Yes,Yes,Yes,Yes,Unknown,Unknown,Unknown,Unknown,Unknown,Unknown,Unknown,Unknown,Yes,Yes,Yes,Yes,Yes,Unknown,Yes,Yes,Yes,Yes,Yes,Yes,Yes,Moderate,Large,Medium,38.716667,-90.2
11005,Dominican Republic -- 10950,Puerto Botado, ,0,4.9,0,7.9,0,0,0,Very Small,Coastal (Natural),Unknown,Fair,No,No,Unknown,Unknown,Unknown,Yes,Yes,Unknown,Yes,Unknown,Unknown,Unknown,Unknown,Unknown,Unknown,Unknown,Unknown,Unknown,Yes,Unknown,Unknown,Yes,Unknown,Unknown,Yes,Unknown,Unknown,Unknown,Yes,Yes,Yes,None,Unknown,Unknown,19.2,-69.45
63100,Antarctica -- 63060,Port Lockroy, ,3,20.1,17.1,0,0,0,0,Very Small,Coastal (Natural),Unknown,Poor,Unknown,Unknown,Unknown,Unknown,Unknown,Yes,Unknown,Unknown,Unknown,Yes,Unknown,Unknown,Unknown,Unknown,Unknown,Unknown,Unknown,Unknown,Unknown,Unknown,Unknown,Unknown,Unknown,Unknown,Unknown,Unknown,Unknown,Unknown,Unknown,Unknown,Unknown,Unknown,Unknown,Unknown,-64.816667,-63.5
51500,Kepulauan Anambas -- 51480,Tarempah, ,0,3.4,23.2,3.4,0,0,0,Very Small,Coastal (Natural),Unknown,Fair,Yes,Yes,Unknown,Unknown,Unknown,Yes,Unknown,Unknown,Unknown,Yes,Unknown,Unknown,Unknown,Unknown,Unknown,Unknown,Unknown,Unknown,Yes,Unknown,Unknown,Unknown,Unknown,Unknown,Unknown,Unknown,Unknown,Yes,Yes,Unknown,Unknown,Unknown,Unknown,Unknown,3.216667,106.216667
52440,Kepulauan Sangihe -- 52400,Tahuna,Taroena; Tohoena,3,3.4,23.2,3.4,0,0,0,Very Small,Coastal (Natural),Unknown,Good,Unknown,Unknown,Unknown,Unknown,Unknown,Yes,Unknown,Unknown,Unknown,Yes,Unknown,Unknown,Unknown,Unknown,Unknown,Unknown,Unknown,Unknown,Yes,Unknown,Unknown,Unknown,Unknown,Unknown,Yes,Unknown,Unknown,No,No,Unknown,Unknown,Unknown,Unknown,Unknown,3.616667,125.483333
57472,Thailand -- 57431,Petchburi Terminal, ,0,0,17.1,11,0,0,0,Very Small,Open Roadstead,Unknown,Poor,Unknown,Unknown,Unknown,Unknown,Unknown,Yes,Yes,Yes,Unknown,Unknown,Unknown,Unknown,Unknown,Unknown,Unknown,Unknown,Unknown,Unknown,Yes,Unknown,Unknown,Unknown,Unknown,Unknown,Unknown,Unknown,Unknown,Unknown,Unknown,Unknown,Unknown,Limited,Unknown,Small,13.166667,100.15
63080,Antarctica -- 63060,Scotia Bay, ,0,23.2,14,0,0,0,0,Very Small,Coastal (Natural),Unknown,Poor,Unknown,Unknown,Unknown,Unknown,Unknown,Unknown,Unknown,Unknown,Unknown,Yes,Unknown,Unknown,Unknown,Unknown,Unknown,Unknown,Unknown,Unknown,Unknown,Unknown,Unknown,Unknown,Unknown,Unknown,Unknown,Unknown,Unknown,Unknown,Unknown,Unknown,Unknown,Unknown,Unknown,Unknown,-60.75,-44.716667
19589,Alaska -- 19080,Tanani Point, ,0,0,0,0,0,0,0,Very Small,Coastal (Natural),Unknown,Fair,No,No,Unknown,Unknown,Unknown,Unknown,Unknown,Unknown,Yes,Unknown,Unknown,Unknown,Unknown,Unknown,Unknown,Unknown,Unknown,Unknown,Unknown,Unknown,Yes,Unknown,Unknown,Unknown,Unknown,Unknown,Unknown,Unknown,Unknown,Unknown,Unknown,Unknown,Unknown,Unknown,59.283333,-135.45
33470,Scotland West Coast -- 32790,Rothesay Dock, ,3,6.4,0,4.9,0,0,0,Very Small,River (Natural),Unknown,Fair,No,No,Unknown,Unknown,Unknown,Unknown,Unknown,Yes,Unknown,Unknown,Unknown,Unknown,Unknown,Unknown,Unknown,Unknown,Unknown,Unknown,Unknown,Unknown,Yes,Unknown,Unknown,Unknown,Unknown,Unknown,Unknown,Unknown,Unknown,Unknown,Unknown,Emergency Only,Unknown,Small,55.9,-4.4
12650,Brazil NE Coast Cont -- 12575,Porto De Mucuripe,Ceara; Fortaleza,2,9.4,6.4,9.4,0,0,0,Small,Open Roadstead,Unknown,Good,Yes,No,Unknown,Unknown,Yes,Yes,Yes,Yes,Yes,Yes,Unknown,Unknown,Unknown,Unknown,Unknown,Unknown,Unknown,Unknown,Yes,Yes,Yes,Unknown,Yes,Unknown,Yes,Yes,Unknown,Unknown,Yes,Yes,Yes,Moderate,Unknown,Small,-3.716667,-38.483333
4130,Canada Lake Huron -- 3640,Sheguiandah, ,0,4.9,4.9,4.9,0,0,0,Very Small,Coastal (Natural),Unknown,Excellent,No,No,Unknown,Unknown,Yes,Unknown,Unknown,Unknown,Yes,Unknown,Unknown,Unknown,Unknown,Unknown,Unknown,Unknown,Unknown,Unknown,Unknown,Unknown,Unknown,Unknown,Unknown,Unknown,Unknown,Unknown,Unknown,Unknown,Unknown,Unknown,Unknown,Unknown,Unknown,Unknown,45.9,-81.916667
19807,Alaska -- 19080,Snug Harbor, ,0,0,21.6,4.9,0,0,0,Very Small,Coastal (Natural),Unknown,Good,No,No,Unknown,Unknown,Unknown,Unknown,Unknown,Unknown,Yes,Yes,Unknown,Unknown,Unknown,Unknown,Unknown,Unknown,Unknown,Unknown,Unknown,Unknown,Unknown,Unknown,Unknown,Unknown,Unknown,Unknown,Unknown,Unknown,Yes,Unknown,Unknown,Unknown,Unknown,Unknown,60.1,-152.583333
47690,Reunion -- 47670,Port Est, ,1,12.5,23.2,11,0,0,0,Small,Coastal (Breakwater),Unknown,Fair,Unknown,Yes,Unknown,Unknown,Yes,Yes,Yes,Unknown,Yes,Yes,Unknown,Unknown,Unknown,Unknown,Unknown,Unknown,Unknown,Unknown,Yes,Yes,Yes,Unknown,Unknown,Unknown,Yes,Yes,Unknown,Yes,Yes,Yes,Yes,Limited,Unknown,Unknown,-20.933333,55.316667
28715,Poland -- 28700,Port Polnochny, ,0,17.1,15.5,14,0,0,0,Medium,Coastal (Breakwater),Unknown,Fair,No,No,Unknown,Unknown,Unknown,Yes,Yes,Yes,Yes,Unknown,Unknown,Unknown,Unknown,Unknown,Unknown,Unknown,Unknown,Unknown,Yes,Yes,Unknown,Unknown,Unknown,Unknown,Yes,Yes,Yes,Yes,Yes,Yes,Yes,None,Unknown,Medium,54.4,18.716667
42790,Aegean Islands -- 42640,Vrakhonisis Kallonis,Kalloni,2,17.1,6.4,1.8,0,0,0,Very Small,Coastal (Natural),Unknown,Good,No,No,Unknown,Unknown,Yes,Unknown,Unknown,Unknown,Unknown,Yes,Unknown,Unknown,Unknown,Unknown,Unknown,Unknown,Unknown,Unknown,Unknown,Unknown,Unknown,Unknown,Unknown,Unknown,Unknown,Unknown,Unknown,Yes,Unknown,Unknown,Unknown,Unknown,Unknown,Unknown,39.083333,26.083333
45515,Algeria -- 45470,Port Methanier, ,0,17.1,17.1,9.4,0,0,0,Small,Coastal (Breakwater),Unknown,Fair,Unknown,Yes,Unknown,Unknown,Unknown,Yes,Yes,Unknown,Unknown,Yes,Unknown,Unknown,Unknown,Unknown,Unknown,Unknown,Unknown,Unknown,Yes,Unknown,Yes,Unknown,Unknown,Unknown,Unknown,Unknown,Unknown,Unknown,Unknown,Yes,Yes,None,Unknown,Unknown,36.883333,6.95
19950,Alaska -- 19080,Port Vita, ,3.4,0,0,4.9,0,0,0,Very Small,Coastal (Natural),Unknown,Good,Unknown,Unknown,Unknown,Unknown,Unknown,Unknown,Unknown,Unknown,Yes,Yes,Unknown,Unknown,Unknown,Unknown,Unknown,Unknown,Unknown,Unknown,Unknown,Unknown,Unknown,Unknown,Unknown,Unknown,Unknown,Unknown,Unknown,Yes,Yes,Unknown,Unknown,Unknown,Unknown,Unknown,58.066667,-153.066667
19830,Alaska -- 19080,Womens Bay, ,2.1,7.9,0,7.9,0,0,0,Very Small,Coastal (Natural),Unknown,Good,No,No,Unknown,Unknown,Yes,Yes,Yes,Unknown,Yes,Unknown,Unknown,Unknown,Unknown,Unknown,Unknown,Unknown,Unknown,Unknown,Yes,Yes,Unknown,Unknown,Unknown,Unknown,No,Yes,No,Yes,Yes,Yes,Yes,Unknown,Unknown,Unknown,57.716667,-152.516667
542,Greenland East Coast -- 540,Qutdleq, ,0,23.2,23.2,0,0,0,0,Very Small,Coastal (Natural),Unknown,Good,No,No,Unknown,Unknown,Unknown,Unknown,Unknown,Unknown,Unknown,Unknown,Unknown,Unknown,Unknown,Unknown,Unknown,Unknown,Unknown,Unknown,No,No,Unknown,Unknown,Unknown,Unknown,No,Unknown,Unknown,Unknown,Unknown,Unknown,Unknown,None,Unknown,Unknown,61.516667,-42.216667
14090,Chile -- 14070,Puerto Sara, ,17,0,20.1,0,0,0,0,Very Small,Coastal (Natural),Unknown,Fair,Yes,Unknown,Unknown,Unknown,Unknown,Unknown,Unknown,Unknown,Unknown,Yes,Unknown,Unknown,Unknown,Unknown,Unknown,Unknown,Unknown,Unknown,Unknown,Unknown,Unknown,Unknown,Unknown,Unknown,Unknown,Unknown,Unknown,Unknown,Unknown,Unknown,Unknown,Unknown,Unknown,Unknown,-52.633333,-70.2
9665,Honduras East Coast -- 9630,Puerto Este,East Harbor,0,9.4,6.4,0,0,0,0,Very Small,Coastal (Natural),Unknown,Good,No,No,Unknown,Unknown,Unknown,Yes,Yes,Unknown,Unknown,Yes,Unknown,Unknown,Unknown,Unknown,Unknown,Unknown,Unknown,Unknown,Unknown,Unknown,Unknown,Unknown,Unknown,Unknown,Unknown,Unknown,Unknown,Yes,Yes,Yes,Unknown,Unknown,Unknown,Unknown,16.083333,-86.9
6650,United States E Coast -- 6585,Wyman, ,3.4,1.8,1.8,1.8,0,0,0,Very Small,Coastal (Natural),Unknown,Good,No,No,Unknown,Unknown,Yes,Unknown,Unknown,Unknown,Yes,Unknown,Unknown,Unknown,Unknown,Unknown,Unknown,Unknown,Unknown,Unknown,Unknown,Yes,Unknown,Unknown,Unknown,Unknown,Unknown,Unknown,Unknown,Yes,Yes,Yes,Yes,Unknown,Unknown,Unknown,44.516667,-67.866667
12820,Brazil SE Coast -- 12700,Portocel, ,2,11,20.1,11,0,0,0,Small,Coastal (Breakwater),Unknown,Fair,Unknown,Unknown,Unknown,Unknown,Unknown,Yes,Unknown,Unknown,Unknown,Unknown,Unknown,Unknown,Unknown,Unknown,Unknown,Unknown,Unknown,Unknown,Yes,Yes,No,No,No,Unknown,Yes,Unknown,Unknown,Yes,Yes,Yes,Unknown,None,Unknown,Unknown,-19.85,-40.05
35835,France NW Coast -- 35720,Port Du Havre-Antifer, ,7,23.2,23.2,0,0,0,0,Small,Coastal (Breakwater),Unknown,Fair,Yes,Yes,Unknown,Unknown,Yes,Yes,Yes,Unknown,Yes,Unknown,Unknown,Unknown,Unknown,Unknown,Unknown,Unknown,Unknown,Unknown,Yes,Yes,Yes,Yes,Unknown,Unknown,Unknown,Unknown,Unknown,Unknown,Yes,Yes,Yes,Unknown,Unknown,Unknown,49.65,0.15
26280,Sweden Cont -- 24975,Ulvvik, ,0,11,14,6.4,0,0,0,Very Small,Coastal (Natural),Unknown,Good,No,No,Unknown,Unknown,Yes,Yes,Unknown,Yes,Yes,Yes,Unknown,Unknown,Unknown,Unknown,Unknown,Unknown,Unknown,Unknown,Unknown,Unknown,Unknown,Unknown,Unknown,Unknown,Unknown,Unknown,Unknown,Yes,Yes,Unknown,Unknown,Limited,Unknown,Unknown,62.666667,17.866667
7020,United States E Coast -- 6585,Pemaquid Beach, ,2.7,12.5,11,1.8,0,0,0,Very Small,Coastal (Natural),Unknown,Fair,Yes,No,Unknown,Unknown,Yes,Unknown,Unknown,Unknown,Yes,Unknown,Unknown,Unknown,Unknown,Unknown,Unknown,Unknown,Unknown,Unknown,Unknown,Unknown,Unknown,Unknown,Unknown,Unknown,Unknown,Unknown,Unknown,Yes,Yes,Yes,Yes,Unknown,Unknown,Unknown,43.866667,-69.533333
3950,Canada Lake Huron -- 3640,Tiffin, ,0,6.4,6.4,6.4,0,0,0,Very Small,Coastal (Natural),Unknown,Excellent,No,No,Unknown,Unknown,Unknown,Unknown,No,Yes,Yes,Unknown,Unknown,Unknown,Unknown,Unknown,Unknown,Unknown,Unknown,Unknown,Unknown,Unknown,Unknown,Unknown,Unknown,Unknown,Unknown,Unknown,Unknown,Unknown,Yes,Unknown,Unknown,Unknown,Unknown,Unknown,44.75,-79.85
40750,Italy East Coast -- 40390,Porto Di Malamocco, ,1,11,11,7.9,0,0,0,Very Small,Canal or Lake,Unknown,Good,Unknown,Unknown,Unknown,Unknown,Unknown,Yes,Unknown,Unknown,Yes,Unknown,Unknown,Unknown,Unknown,Unknown,Unknown,Unknown,Unknown,Unknown,Unknown,Unknown,Yes,Yes,Unknown,Unknown,Yes,Unknown,Unknown,Unknown,Unknown,Unknown,Unknown,Unknown,Unknown,Unknown,45.333333,12.316667
4380,US Lake Huron -- 4300,Port Hope, ,0,1.8,9.4,1.8,0,0,0,Very Small,Open Roadstead,Unknown,Poor,No,No,Unknown,Unknown,Unknown,Unknown,Unknown,Unknown,Unknown,Unknown,Unknown,Unknown,Unknown,Unknown,Unknown,Unknown,Unknown,Unknown,Unknown,Unknown,Unknown,Unknown,Unknown,Unknown,Unknown,Unknown,Unknown,Unknown,Unknown,Unknown,Unknown,Unknown,Unknown,Unknown,43.95,-82.7
3960,Canada Lake Huron -- 3640,Port Mcnicoll, ,0,6.4,6.4,7.9,0,0,0,Very Small,Coastal (Natural),Unknown,Excellent,No,No,Unknown,Unknown,Yes,Unknown,No,Yes,Yes,Unknown,Unknown,Unknown,Unknown,Unknown,Unknown,Unknown,Unknown,Unknown,Yes,Unknown,Unknown,Unknown,Unknown,Unknown,Yes,Unknown,Unknown,Yes,Yes,No,No,Unknown,Unknown,Small,44.75,-79.8
3150,US Lake Ontario -- 3120,Sackets Harbor, ,0,1.8,1.8,23.2,0,0,0,Very Small,Coastal (Natural),Unknown,Excellent,No,No,Unknown,Unknown,Yes,Unknown,Unknown,Yes,Yes,Unknown,Unknown,Unknown,Unknown,Unknown,Unknown,Unknown,Unknown,Unknown,Unknown,Unknown,Unknown,Unknown,Unknown,Unknown,Unknown,Yes,Unknown,Yes,Yes,Yes,Yes,Limited,Unknown,Small,43.95,-76.116667
46544,Angola -- 46540,Psvm Terminal, ,0,23.2,23.2,23.2,0,0,0,Very Small,Open Roadstead,Unknown,Poor,No,Yes,Unknown,Unknown,Yes,Yes,Unknown,No,Unknown,Unknown,Unknown,Unknown,Unknown,Unknown,Unknown,Unknown,Unknown,Unknown,Unknown,Unknown,Unknown,Unknown,Unknown,Unknown,Unknown,Unknown,Unknown,Unknown,Unknown,Unknown,Unknown,Unknown,Unknown,Unknown,-6.25,10.733333
12857,Brazil SE Coast -- 12700,Santa Clara, ,2,4.9,4.9,4.9,0,0,0,Very Small,Coastal (Natural),Unknown,Fair,Unknown,Unknown,Unknown,Unknown,Unknown,Yes,Yes,Unknown,Unknown,Unknown,Unknown,Unknown,Unknown,Unknown,Unknown,Unknown,Unknown,Unknown,Yes,Unknown,Yes,Unknown,Unknown,Unknown,Unknown,Unknown,Unknown,Unknown,Yes,Yes,Unknown,Unknown,Unknown,Unknown,-20.883333,-51.366667
4270,Canada Lake Huron -- 3640,Richards Landing, ,0,6.4,6.4,3.4,0,0,0,Very Small,Coastal (Natural),Unknown,Excellent,No,No,Unknown,Unknown,Unknown,Unknown,Unknown,Unknown,Yes,Unknown,Unknown,Unknown,Unknown,Unknown,Unknown,Unknown,Unknown,Unknown,Unknown,Unknown,Unknown,Unknown,Unknown,Unknown,Unknown,Unknown,Unknown,Unknown,Unknown,Yes,Yes,Unknown,Unknown,Unknown,46.3,-84.033333
19180,Alaska -- 19080,Yes Bay, ,4,0,14,0,0,0,0,Very Small,Coastal (Natural),Unknown,Good,No,No,Unknown,Unknown,Unknown,Unknown,Unknown,Unknown,Yes,Yes,Unknown,Unknown,Unknown,Unknown,Unknown,Unknown,Unknown,Unknown,Unknown,Unknown,Unknown,Unknown,Unknown,Unknown,Unknown,Yes,Unknown,No,Yes,No,Yes,Unknown,Unknown,Unknown,55.916667,-131.8
47695,Reunion -- 47670,Port Ouest, ,1,9.4,23.2,7.9,0,0,0,Small,Coastal (Breakwater),Unknown,Fair,Unknown,Yes,Unknown,Unknown,Yes,Unknown,Yes,Unknown,Yes,Yes,Unknown,Unknown,Unknown,Unknown,Unknown,Unknown,Unknown,Unknown,Yes,Yes,Yes,Unknown,Unknown,Unknown,Unknown,Unknown,Unknown,Unknown,Yes,Yes,Yes,Limited,Unknown,Unknown,-20.933333,55.283333
9230,US Gulf Coast -- 8650,Sinco, ,0.3,11,9.4,9.4,0,0,0,Very Small,River (Natural),Unknown,Good,No,No,Unknown,Unknown,Yes,Unknown,Unknown,Yes,Yes,Unknown,Unknown,Unknown,Unknown,Unknown,Unknown,Unknown,Unknown,Unknown,Yes,Unknown,Unknown,Unknown,Unknown,Unknown,Unknown,Unknown,Unknown,Yes,Yes,Yes,Yes,Unknown,Unknown,Medium,29.716667,-95.233333
14020,South Georgia -- 14010,Prince Olav Harbor, ,0,0,23.2,0,0,0,0,Very Small,Coastal (Natural),Unknown,Good,Unknown,Yes,Unknown,Unknown,Unknown,Unknown,Unknown,Unknown,Unknown,Yes,Unknown,Unknown,Unknown,Unknown,Unknown,Unknown,Unknown,Unknown,Unknown,Unknown,Unknown,Unknown,Unknown,Unknown,Unknown,Unknown,Unknown,Unknown,Unknown,Unknown,Unknown,Unknown,Unknown,Unknown,-54.033333,-37.15
43835,Ukraine -- 43620,Sudak, ,0,11,23.2,23.2,0,0,0,Very Small,Coastal (Natural),Unknown,Fair,No,No,Unknown,Unknown,Unknown,Unknown,Unknown,Unknown,Yes,Yes,Unknown,Unknown,Unknown,Unknown,Unknown,Unknown,Unknown,Unknown,Yes,Yes,Unknown,Unknown,Unknown,Unknown,Unknown,Unknown,Unknown,Yes,Yes,Yes,Unknown,Unknown,Unknown,Unknown,44.85,34.983333
5170,Canada Lake Superior -- 5120,Quebec Harbour, ,0,4.9,11,3.4,0,0,0,Very Small,Coastal (Natural),Unknown,Excellent,No,No,Unknown,Unknown,Unknown,Unknown,Unknown,Unknown,Yes,Unknown,Unknown,Unknown,Unknown,Unknown,Unknown,Unknown,Unknown,Unknown,No,Unknown,Unknown,Unknown,Unknown,Unknown,Unknown,Unknown,Unknown,No,No,Unknown,Unknown,Unknown,Unknown,Unknown,47.7,-85.8
19490,Alaska -- 19080,Todd, ,3.7,0,0,7.9,0,0,0,Very Small,Coastal (Natural),Unknown,Fair,Unknown,Unknown,Unknown,Unknown,Unknown,Unknown,Unknown,Unknown,Yes,Yes,Unknown,Unknown,Unknown,Unknown,Unknown,Unknown,Unknown,Unknown,Unknown,Unknown,Unknown,Unknown,Unknown,Unknown,Unknown,Unknown,Unknown,Unknown,Unknown,Unknown,Unknown,Unknown,Unknown,Unknown,57.466667,-135.05
19730,Alaska -- 19080,Port Ashton, ,2.7,0,0,7.9,0,0,0,Very Small,Coastal (Natural),Unknown,Good,No,No,Unknown,Unknown,Unknown,Unknown,Unknown,Unknown,Yes,Unknown,Unknown,Unknown,Unknown,Unknown,Unknown,Unknown,Unknown,Unknown,Unknown,Unknown,Unknown,Unknown,Unknown,Unknown,Unknown,Unknown,Unknown,Unknown,Unknown,Unknown,Unknown,Unknown,Unknown,Unknown,60.066667,-148.05
3980,Canada Lake Huron -- 3640,Waubaushene, ,0,4.9,4.9,1.8,0,0,0,Very Small,Coastal (Natural),Unknown,Excellent,No,No,Unknown,Unknown,Unknown,Unknown,Unknown,Unknown,Yes,Unknown,Unknown,Unknown,Unknown,Unknown,Unknown,Unknown,Unknown,Unknown,Unknown,Unknown,Unknown,Unknown,Unknown,Unknown,Unknown,Unknown,Unknown,Unknown,Yes,Yes,Unknown,Limited,Unknown,Unknown,44.766667,-79.716667
4480,US Lake Huron -- 4300,Rockport, ,0,6.4,9.4,6.4,0,0,0,Very Small,Open Roadstead,Unknown,Poor,No,No,Unknown,Unknown,Unknown,Unknown,Unknown,Unknown,Yes,Unknown,Unknown,Unknown,Unknown,Unknown,Unknown,Unknown,Unknown,Unknown,Unknown,Unknown,Unknown,Unknown,Unknown,Unknown,Unknown,Unknown,Unknown,Unknown,Unknown,Unknown,Unknown,Unknown,Unknown,Unknown,45.2,-83.383333
19585,Alaska -- 19080,Port Chilkoot, ,2.7,0,0,0,0,0,0,Very Small,Coastal (Natural),Unknown,Good,No,No,Unknown,Unknown,Unknown,Unknown,Yes,Yes,Yes,Unknown,Unknown,Unknown,Unknown,Unknown,Unknown,Unknown,Unknown,Unknown,Unknown,Unknown,Unknown,Unknown,Unknown,Unknown,Unknown,Unknown,Unknown,Unknown,Unknown,Unknown,Unknown,Unknown,Unknown,Unknown,59.233333,-135.433333
7070,United States E Coast -- 6585,Robinhood,Riggsville,2.7,12.5,20.1,1.8,0,0,0,Very Small,River (Natural),Unknown,Good,Yes,No,Unknown,Unknown,Yes,Unknown,Unknown,Unknown,Yes,Unknown,Unknown,Unknown,Unknown,Unknown,Unknown,Unknown,Unknown,Unknown,Unknown,Unknown,Yes,Unknown,Unknown,Unknown,Unknown,Unknown,Unknown,Yes,Yes,Yes,Yes,Moderate,Small,Small,43.85,-69.733333
6980,United States E Coast -- 6585,Port Clyde, ,2.7,3.4,9.4,4.9,0,0,0,Very Small,Coastal (Natural),Unknown,Good,Yes,No,Unknown,Unknown,Yes,Unknown,Unknown,Unknown,Yes,Unknown,Unknown,Unknown,Unknown,Unknown,Unknown,Unknown,Unknown,Unknown,Unknown,Unknown,Unknown,Unknown,Unknown,Unknown,Unknown,Unknown,Unknown,Yes,Yes,Unknown,Yes,Limited,Unknown,Large,43.916667,-69.25
42440,Greece East Coast -- 42010,Stilis, ,0,3.4,14,4.9,0,0,0,Very Small,Coastal (Natural),Unknown,Fair,No,No,Unknown,Unknown,Unknown,Yes,Unknown,Yes,Unknown,Unknown,Unknown,Unknown,Unknown,Unknown,Unknown,Unknown,Unknown,Unknown,Yes,Yes,Unknown,Yes,Unknown,Unknown,Yes,Unknown,Unknown,Unknown,Yes,No,No,Limited,Unknown,Small,38.916667,22.616667
42205,Greece East Coast -- 42010,Pakhi Oil Terminal, ,0,23.2,23.2,23.2,0,0,0,Very Small,Open Roadstead,Unknown,Poor,Unknown,Unknown,Unknown,Unknown,Unknown,Yes,Yes,Yes,Yes,Unknown,Unknown,Unknown,Unknown,Unknown,Unknown,Unknown,Unknown,Unknown,Yes,No,Unknown,Unknown,Unknown,Unknown,Unknown,Unknown,Unknown,Unknown,No,Yes,Yes,None,Unknown,Unknown,37.966667,23.383333
19870,Alaska -- 19080,Trap Point, ,2.7,0,0,9.4,0,0,0,Very Small,Coastal (Natural),Unknown,Good,No,No,Unknown,Unknown,Unknown,Unknown,Unknown,Unknown,Yes,Yes,Unknown,Unknown,Unknown,Unknown,Unknown,Unknown,Unknown,Unknown,Unknown,Unknown,Unknown,Unknown,Unknown,Unknown,Unknown,Unknown,Unknown,Unknown,Yes,Unknown,Unknown,Limited,Unknown,Unknown,57,-154.15
5110,US Lake Michigan -- 4570,Port Inland, ,0,7.9,7.9,7.9,0,0,0,Very Small,Coastal (Breakwater),Unknown,Fair,No,No,Unknown,Unknown,Yes,Unknown,Unknown,Unknown,Yes,Unknown,Unknown,Unknown,Unknown,Unknown,Unknown,Unknown,Unknown,Unknown,Unknown,Unknown,Unknown,Unknown,Unknown,Unknown,Unknown,Unknown,Unknown,Yes,Unknown,Unknown,Unknown,Unknown,Unknown,Unknown,45.966667,-85.866667
19650,Alaska -- 19080,Shepard Point, ,3,0,0,7.9,0,0,0,Very Small,Open Roadstead,Unknown,Good,No,No,Unknown,Unknown,Unknown,Unknown,Unknown,Unknown,Yes,Yes,Unknown,Unknown,Unknown,Unknown,Unknown,Unknown,Unknown,Unknown,Unknown,Unknown,Unknown,Unknown,Unknown,Unknown,Unknown,Unknown,Unknown,Unknown,Unknown,Unknown,Unknown,Unknown,Unknown,Unknown,60.633333,-145.666667
4580,US Lake Michigan -- 4570,St. James Harbor, ,0,3.4,9.4,3.4,0,0,0,Very Small,Coastal (Natural),Unknown,Fair,No,No,Unknown,Unknown,Yes,Unknown,Yes,Unknown,Yes,Unknown,Unknown,Unknown,Unknown,Unknown,Unknown,Unknown,Unknown,Unknown,Yes,Unknown,Unknown,Unknown,Unknown,Unknown,Unknown,Yes,Unknown,Yes,Yes,Yes,Yes,Emergency Only,Unknown,Unknown,45.733333,-85.516667
14040,South Georgia -- 14010,Stromness Harbor, ,2,0,23.2,0,0,0,0,Very Small,Coastal (Natural),Unknown,Fair,Unknown,Yes,Unknown,Unknown,Unknown,Unknown,Unknown,Unknown,Unknown,Unknown,Unknown,Unknown,Unknown,Unknown,Unknown,Unknown,Unknown,Unknown,Unknown,Unknown,Unknown,Unknown,Unknown,Unknown,Unknown,Unknown,Unknown,Unknown,Unknown,Unknown,Unknown,Unknown,Unknown,Unknown,-54.15,-36.7
19840,Alaska -- 19080,Port Hobron, ,1.8,0,0,7.9,0,0,0,Very Small,Coastal (Natural),Unknown,Good,No,No,Unknown,Unknown,Unknown,Unknown,Unknown,Unknown,Yes,Yes,Unknown,Unknown,Unknown,Unknown,Unknown,Unknown,Unknown,Unknown,Unknown,Unknown,Unknown,Unknown,Unknown,Unknown,Unknown,Unknown,Unknown,Unknown,Unknown,Unknown,Unknown,Unknown,Unknown,Unknown,57.166667,-153.166667
4540,US Lake Huron -- 4300,St Ignace, ,0,6.4,11,6.4,0,0,0,Very Small,Coastal (Natural),Unknown,Fair,No,No,Unknown,Unknown,Unknown,Unknown,Yes,Yes,Yes,Unknown,Unknown,Unknown,Unknown,Unknown,Unknown,Unknown,Unknown,Unknown,Unknown,Unknown,Unknown,Unknown,Unknown,Unknown,Unknown,Unknown,Unknown,Yes,Yes,Yes,Yes,Unknown,Unknown,Unknown,45.85,-84.716667
3610,US Lake Erie -- 3400,Rouge River,River Rouge,0,6.4,9.4,7.9,0,0,0,Small,River (Natural),Unknown,Excellent,No,No,Unknown,Unknown,Yes,Unknown,Yes,Yes,Yes,Unknown,Unknown,Unknown,Unknown,Unknown,Unknown,Unknown,Unknown,Unknown,Yes,Unknown,Unknown,Unknown,Unknown,Unknown,Unknown,Unknown,Unknown,Yes,Yes,Yes,Yes,Major,Large,Unknown,42.283333,-83.116667
45845,Guinea -- 45842,Victoria, ,14,4.9,6.4,0,0,0,0,Very Small,River (Natural),Unknown,Good,Yes,Unknown,Unknown,Unknown,Unknown,Unknown,Unknown,Yes,Unknown,Yes,Unknown,Unknown,Unknown,Unknown,Unknown,Unknown,Unknown,Unknown,Unknown,Unknown,Unknown,Unknown,Unknown,Unknown,Unknown,Unknown,Unknown,Yes,Unknown,Unknown,Unknown,Unknown,Unknown,Unknown,10.816667,-14.566667
19190,Alaska -- 19080,Union Bay, ,4.3,0,23.2,7.9,0,0,0,Very Small,Coastal (Natural),Unknown,Good,No,No,Unknown,Unknown,Unknown,Unknown,Unknown,Unknown,Yes,Yes,Unknown,Unknown,Unknown,Unknown,Unknown,Unknown,Unknown,Unknown,Unknown,Unknown,Unknown,Unknown,Unknown,Unknown,Unknown,Unknown,Unknown,Unknown,Unknown,Unknown,Unknown,Unknown,Unknown,Unknown,55.766667,-132.216667
3340,Canada Lake Erie -- 3240,Pelee I West Dock, ,0,3.4,4.9,3.4,0,0,0,Very Small,Open Roadstead,Unknown,Poor,No,No,Unknown,Unknown,Unknown,Unknown,Yes,Unknown,Yes,Unknown,Unknown,Unknown,Unknown,Unknown,Unknown,Unknown,Unknown,Unknown,Unknown,Unknown,Unknown,Unknown,Unknown,Unknown,Unknown,Unknown,Unknown,Unknown,Unknown,Unknown,Unknown,Unknown,Unknown,Unknown,41.766667,-82.683333
19860,Alaska -- 19080,Three Saints Bay, ,1.8,0,0,6.4,0,0,0,Very Small,Coastal (Natural),Unknown,Good,Unknown,Unknown,Unknown,Unknown,Unknown,Unknown,Unknown,Unknown,Unknown,Yes,Unknown,Unknown,Unknown,Unknown,Unknown,Unknown,Unknown,Unknown,Unknown,Unknown,Unknown,Unknown,Unknown,Unknown,Unknown,Unknown,Unknown,Unknown,Unknown,Unknown,Unknown,Unknown,Unknown,Unknown,57.116667,-153.5
20330,Alaska Continued -- 20185,Kwiguk, ,0.3,0,0,0,0,0,0,Very Small,River (Natural),Unknown,Fair,No,No,Unknown,Unknown,Unknown,Unknown,Yes,Unknown,Unknown,Unknown,Unknown,Unknown,Unknown,Unknown,Unknown,Unknown,Unknown,Unknown,Unknown,Unknown,Unknown,Unknown,Unknown,Unknown,Unknown,Unknown,Unknown,Yes,Yes,Yes,Yes,Unknown,Unknown,Unknown,62.733333,-164.466667
4450,US Lake Huron -- 4300,Au Sable, ,0,2,4.9,0,0,0,0,Very Small,River (Natural),Unknown,Excellent,No,No,Unknown,Unknown,Unknown,Unknown,Unknown,Unknown,Yes,Unknown,Unknown,Unknown,Unknown,Unknown,Unknown,Unknown,Unknown,Unknown,Unknown,Unknown,Unknown,Unknown,Unknown,Unknown,Unknown,Unknown,Unknown,Yes,Yes,Unknown,Yes,Limited,Unknown,Unknown,44.4,-83.316667
61662,Japan -- 61100,Iwakuni Ko, ,3,21.6,14,11,0,0,0,Medium,Open Roadstead,Unknown,Good,Yes,Yes,Unknown,Unknown,Unknown,Yes,Yes,Yes,Yes,Yes,Unknown,Unknown,Unknown,Unknown,Unknown,Unknown,Unknown,Unknown,Yes,Unknown,Yes,Unknown,Unknown,Unknown,Yes,Unknown,No,Yes,Yes,Yes,Yes,Limited,Unknown,Small,34.183333,132.25
61356,Japan -- 61100,Hitachi,Hitaki Ko,1,7.9,0,11,0,0,0,Very Small,River (Basins),Unknown,Fair,Unknown,Unknown,Unknown,Unknown,Unknown,Unknown,Unknown,Unknown,Unknown,Unknown,Unknown,Unknown,Unknown,Unknown,Unknown,Unknown,Unknown,Unknown,Unknown,Unknown,Yes,Yes,Unknown,Unknown,Yes,Unknown,Unknown,Unknown,Yes,Unknown,Unknown,Limited,Unknown,Unknown,36.5,140.633333
50140,Indonesia -- 50020,Muntok, ,9,0,21.6,0,0,0,0,Very Small,Coastal (Natural),Unknown,Fair,No,No,Unknown,Unknown,Unknown,Yes,Yes,No,Yes,Yes,Unknown,Unknown,Unknown,Unknown,Unknown,Unknown,Unknown,Unknown,Yes,Unknown,Unknown,Unknown,Unknown,Unknown,Yes,Unknown,Unknown,No,No,No,No,None,Unknown,Unknown,-2.066667,105.166667
40590,Italy East Coast -- 40390,Manfredonia, ,0,6.4,6.4,9.4,0,0,0,Small,Coastal (Breakwater),Unknown,Fair,Unknown,Yes,Unknown,Unknown,Yes,Unknown,Unknown,Yes,Yes,Unknown,Unknown,Unknown,Unknown,Unknown,Unknown,Unknown,Unknown,Unknown,Unknown,Unknown,Yes,Yes,Unknown,Unknown,Yes,Unknown,Unknown,Unknown,Yes,Yes,Unknown,Limited,Unknown,Small,41.616667,15.916667
39810,Italy West Coast Cont -- 39730,Civitavecchia, ,0,12.5,15.5,9.4,0,0,0,Large,Coastal (Breakwater),Unknown,Fair,No,No,Unknown,Unknown,Yes,Yes,Yes,Yes,Yes,Unknown,Unknown,Unknown,Unknown,Unknown,Unknown,Unknown,Unknown,Unknown,Yes,Yes,Yes,Yes,Yes,Unknown,Yes,Unknown,Unknown,Unknown,Yes,Yes,Yes,Limited,Unknown,Unknown,42.102,11.771
45855,Guinea -- 45842,Conakry,Conakri; Konakri,4,9.4,11,6.4,0,0,0,Medium,Coastal (Breakwater),Unknown,Good,Yes,No,Unknown,Unknown,Unknown,Yes,Yes,Yes,Yes,Yes,Unknown,Unknown,Unknown,Unknown,Unknown,Unknown,Unknown,Unknown,Yes,Yes,Unknown,Yes,Unknown,Unknown,Yes,No,Unknown,No,Yes,Yes,Yes,Limited,Small,Medium,9.516667,-13.716667
45838,Guinea Bissau -- 45833,Bissau, ,6,11,4.9,7.9,0,0,0,Very Small,River (Natural),Unknown,Good,Yes,Unknown,Unknown,Unknown,Yes,Yes,Yes,Unknown,Yes,Yes,Unknown,Unknown,Unknown,Unknown,Unknown,Unknown,Unknown,Unknown,Yes,Unknown,Unknown,Yes,Unknown,Unknown,Yes,Yes,Yes,Yes,Yes,Unknown,Yes,Moderate,Unknown,Unknown,11.866667,-15.633333
34160,Ireland -- 33840,Fenit, ,4,4.9,4.9,6.4,0,0,0,Very Small,Coastal (Natural),Unknown,Good,Yes,No,Unknown,Unknown,Yes,Yes,Yes,Yes,Yes,Unknown,Unknown,Unknown,Unknown,Unknown,Unknown,Unknown,Unknown,Unknown,Yes,Unknown,Yes,Yes,Unknown,Unknown,Yes,Unknown,Unknown,Unknown,Yes,Yes,Yes,Limited,Unknown,Unknown,52.266667,-9.866667
41420,Croatia -- 40877,Korcula, ,0,23.2,6.4,23.2,0,0,0,Very Small,Coastal (Natural),Unknown,Fair,Unknown,Unknown,Unknown,Unknown,Unknown,Yes,Unknown,Unknown,Unknown,Unknown,Unknown,Unknown,Unknown,Unknown,Unknown,Unknown,Unknown,Unknown,Yes,Yes,Yes,Unknown,Unknown,Unknown,Unknown,Unknown,Unknown,Yes,Yes,Yes,Yes,Limited,Unknown,Unknown,42.933333,17.133333
41840,Greece West Coast -- 41710,Aigio,Aegion; Ormos Aiyiou; Vostitza,0,11,23.2,4.9,0,0,0,Very Small,Open Roadstead,Unknown,Fair,No,No,Unknown,Unknown,Unknown,Yes,Unknown,Yes,Unknown,Yes,Unknown,Unknown,Unknown,Unknown,Unknown,Unknown,Unknown,Unknown,Yes,Unknown,Unknown,Unknown,Unknown,Unknown,Unknown,Unknown,Unknown,Unknown,Unknown,Unknown,Unknown,Unknown,Unknown,Small,38.25,22.083333
32700,Faroe Islands -- 32660,Kongshavn, ,0,12.5,23.2,9.4,0,0,0,Very Small,Coastal (Breakwater),Unknown,Good,Unknown,Unknown,Unknown,Unknown,Yes,Unknown,Unknown,Unknown,Yes,Unknown,Unknown,Unknown,Unknown,Unknown,Unknown,Unknown,Unknown,Unknown,Unknown,Unknown,Unknown,Unknown,Unknown,Unknown,Unknown,Unknown,Unknown,Unknown,Yes,Yes,Unknown,Limited,Unknown,Unknown,62.116667,-6.733333
19510,Alaska -- 19080,Hood Bay, ,3.7,0,7.9,6.4,0,0,0,Very Small,Coastal (Natural),Unknown,Good,No,No,Unknown,Unknown,Unknown,Unknown,Yes,Unknown,Yes,Yes,Unknown,Unknown,Unknown,Unknown,Unknown,Unknown,Unknown,Unknown,Unknown,Unknown,Unknown,Unknown,Unknown,Unknown,Unknown,Unknown,Unknown,Unknown,Unknown,Yes,Yes,Unknown,Unknown,Unknown,57.4,-134.5
19330,Alaska -- 19080,Bay Of Pillars, ,3,0,21.6,9.4,0,0,0,Very Small,Coastal (Natural),Unknown,Good,No,No,Unknown,Unknown,Unknown,Unknown,Unknown,Unknown,Yes,Yes,Unknown,Unknown,Unknown,Unknown,Unknown,Unknown,Unknown,Unknown,Unknown,Unknown,Unknown,Unknown,Unknown,Unknown,Unknown,Unknown,Unknown,Unknown,Unknown,Unknown,Unknown,Unknown,Unknown,Unknown,56.6,-134.233333
700,Greenland  West Coast -- 545,Attu, ,0,23.2,23.2,3.4,0,0,0,Very Small,Coastal (Natural),Unknown,Fair,No,No,Unknown,Unknown,Unknown,Unknown,Unknown,Unknown,Unknown,Yes,Unknown,Unknown,Unknown,Unknown,Unknown,Unknown,Unknown,Unknown,Unknown,No,Unknown,Unknown,Unknown,Unknown,Unknown,Unknown,Unknown,Unknown,Unknown,Unknown,Unknown,Unknown,Unknown,Unknown,67.95,-53.733333
31640,England East Coast -- 31330,Grimsby, ,6,6.4,3.4,4.9,0,0,0,Medium,River (Tide Gates),Unknown,Excellent,Yes,No,Unknown,Unknown,Yes,Yes,Yes,Yes,Yes,Unknown,Unknown,Unknown,Unknown,Unknown,Unknown,Unknown,Unknown,Unknown,Yes,Unknown,Yes,Yes,Unknown,Unknown,Yes,Unknown,Unknown,Yes,Yes,Yes,Yes,Limited,Medium,Small,53.583333,-0.066667
31610,England East Coast -- 31330,King's Lynn, ,4,1.8,4.9,4.9,0,0,0,Small,River (Tide Gates),Unknown,Excellent,Yes,No,Unknown,Unknown,Unknown,Yes,Yes,Yes,Yes,Unknown,Unknown,Unknown,Unknown,Unknown,Unknown,Unknown,Unknown,Unknown,Yes,Yes,Yes,Yes,Unknown,Unknown,Unknown,Yes,Unknown,Yes,Yes,Yes,Yes,Limited,Unknown,Small,52.75,0.4
31310,Belgium -- 31240,Oostende,Ostend,5,4.9,6.4,4.9,0,0,0,Small,River (Tide Gates),Unknown,Fair,Yes,Yes,Unknown,Unknown,Unknown,Yes,Yes,Yes,Yes,Unknown,Unknown,Unknown,Unknown,Unknown,Unknown,Unknown,Unknown,Unknown,Yes,Yes,Yes,Yes,Yes,Unknown,Yes,Unknown,Yes,Yes,Yes,Yes,Yes,Limited,Medium,Medium,51.233333,2.916667
30990,Netherlands -- 30980,Delfzijl, ,3,6.4,7.9,6.4,0,0,0,Small,Coastal (Tide Gates),Unknown,Good,Yes,No,Unknown,Unknown,Yes,Yes,Yes,Yes,Yes,Unknown,Unknown,Unknown,Unknown,Unknown,Unknown,Unknown,Unknown,Unknown,Yes,Yes,Yes,Yes,Unknown,Unknown,Yes,Unknown,Unknown,Yes,Yes,Yes,Yes,Limited,Medium,Small,53.333333,6.933333
33560,Scotland West Coast -- 32790,Ayr, ,2,3.4,6.4,4.9,0,0,0,Very Small,River (Basins),Unknown,Good,No,Yes,Unknown,Unknown,Yes,Yes,Yes,Yes,Yes,Unknown,Unknown,Unknown,Unknown,Unknown,Unknown,Unknown,Unknown,Unknown,Yes,Yes,Yes,Yes,Unknown,Unknown,Yes,Unknown,Unknown,Unknown,Yes,Yes,Yes,Moderate,Unknown,Large,55.466667,-4.633333
7000,United States E Coast -- 6585,Friendship, ,2.7,6.4,7.9,3.4,0,0,0,Very Small,Coastal (Natural),Unknown,Good,Yes,No,Unknown,Unknown,Yes,Unknown,Unknown,Unknown,Yes,Unknown,Unknown,Unknown,Unknown,Unknown,Unknown,Unknown,Unknown,Unknown,Unknown,Unknown,Unknown,Unknown,Unknown,Unknown,Unknown,Unknown,Unknown,Yes,Yes,Unknown,Yes,Limited,Unknown,Small,43.966667,-69.333333
6880,United States E Coast -- 6585,Bucksport, ,3.4,9.4,3.4,9.4,0,0,0,Very Small,River (Natural),Unknown,Good,Yes,No,Unknown,Unknown,Yes,Yes,Yes,Yes,Yes,Unknown,Unknown,Unknown,Unknown,Unknown,Unknown,Unknown,Unknown,Unknown,Yes,Unknown,Unknown,Unknown,Unknown,Unknown,Unknown,Unknown,Unknown,Yes,Yes,Yes,Yes,Limited,Unknown,Small,44.566667,-68.783333
23660,Norway -- 20620,Brevik, ,1,11,17.1,9.4,0,0,0,Small,Coastal (Natural),Unknown,Good,No,Yes,Unknown,Unknown,Yes,Yes,Yes,Yes,Yes,Yes,Unknown,Unknown,Unknown,Unknown,Unknown,Unknown,Unknown,Unknown,Yes,Unknown,No,No,No,Unknown,Yes,Unknown,Unknown,Unknown,Yes,Yes,Unknown,Moderate,Unknown,Small,59.066667,9.7
19588,Alaska -- 19080,Haines, ,2.7,0,21.6,4.9,0,0,0,Very Small,Coastal (Natural),Unknown,Good,No,No,Unknown,Unknown,Unknown,Unknown,Yes,Yes,Yes,Yes,Unknown,Unknown,Unknown,Unknown,Unknown,Unknown,Unknown,Unknown,Yes,Unknown,Yes,Unknown,Unknown,Unknown,Unknown,Unknown,Unknown,Unknown,Yes,No,No,None,Unknown,Unknown,59.233333,-135.433333
19110,Alaska -- 19080,Metlakatla, ,3.7,0,1.8,6.4,0,0,0,Very Small,Open Roadstead,Unknown,Poor,Unknown,Unknown,Unknown,Unknown,Unknown,Unknown,Unknown,Yes,Yes,Yes,Unknown,Unknown,Unknown,Unknown,Unknown,Unknown,Unknown,Unknown,Yes,Unknown,Unknown,Unknown,Unknown,Unknown,Unknown,Unknown,Unknown,Yes,Yes,No,No,None,Unknown,Unknown,55.133333,-131.566667
5460,US Lake Superior -- 5230,Duluth, ,0,6.4,7.9,7.9,0,0,0,Medium,Coastal (Breakwater),Unknown,Excellent,No,No,Unknown,Unknown,Yes,Yes,Yes,Yes,Yes,Unknown,Unknown,Unknown,Unknown,Unknown,Unknown,Unknown,Unknown,Unknown,Yes,Unknown,Yes,Yes,Unknown,Unknown,Yes,Yes,Yes,Yes,Yes,Yes,Yes,Major,Medium,Unknown,46.766667,-92.1
5390,US Lake Superior -- 5230,Ashland,Chequamegon Bay,0,6.4,7.9,6.4,0,0,0,Small,Coastal (Natural),Unknown,Good,No,No,Unknown,Unknown,Yes,Unknown,Yes,Unknown,Yes,Unknown,Unknown,Unknown,Unknown,Unknown,Unknown,Unknown,Unknown,Unknown,Yes,Unknown,Unknown,Unknown,Unknown,Unknown,Unknown,Unknown,Unknown,Yes,Yes,Yes,Yes,Limited,Unknown,Unknown,46.6,-90.866667
4690,US Lake Michigan -- 4570,Muskegon, ,0,7.9,7.9,6.4,0,0,0,Small,River (Natural),Unknown,Excellent,No,No,Unknown,Unknown,Yes,Yes,Yes,Yes,Yes,Unknown,Unknown,Unknown,Unknown,Unknown,Unknown,Unknown,Unknown,Unknown,Yes,Unknown,Yes,Yes,Unknown,Unknown,Yes,Yes,Yes,Yes,Yes,Yes,Yes,Moderate,Unknown,Unknown,43.233333,-86.266667
4650,US Lake Michigan -- 4570,Manistee, ,0,6.4,17.1,6.4,0,0,0,Small,River (Natural),Unknown,Excellent,No,No,Unknown,Unknown,Yes,No,Yes,Unknown,Yes,Unknown,Unknown,Unknown,Unknown,Unknown,Unknown,Unknown,Unknown,Unknown,Yes,Unknown,Yes,Unknown,Unknown,Unknown,No,Yes,Unknown,Yes,Yes,Yes,Yes,Moderate,Unknown,Small,44.25,-86.316667
4520,US Lake Huron -- 4300,Mackinaw City, ,0,4.9,4.9,6.4,0,0,0,Very Small,Canal or Lake,Unknown,Poor,No,No,Unknown,Unknown,Unknown,Unknown,Unknown,Yes,Yes,Unknown,Unknown,Unknown,Unknown,Unknown,Unknown,Unknown,Unknown,Unknown,Unknown,Unknown,Yes,Unknown,Unknown,Unknown,Unknown,Unknown,Unknown,Yes,Yes,Yes,Yes,Limited,Unknown,Unknown,45.783333,-84.716667
9240,US Gulf Coast -- 8650,Houston, ,0,14,9.4,7.9,0,0,0,Large,River (Tide Gates),Unknown,Good,No,No,Unknown,Unknown,Yes,Yes,Yes,Yes,Yes,Unknown,Unknown,Unknown,Unknown,Unknown,Unknown,Unknown,Unknown,Unknown,Yes,Yes,Yes,Yes,Yes,Unknown,Yes,Yes,Yes,Yes,Yes,Yes,Yes,Major,Medium,Medium,29.75,-95.283333
8410,United States E Coast -- 6585,New Bern, ,0,3.4,3.4,3.4,0,0,0,Very Small,River (Basins),Unknown,Fair,No,No,Unknown,Unknown,Yes,Unknown,Unknown,Unknown,Yes,Unknown,Unknown,Unknown,Unknown,Unknown,Unknown,Unknown,Unknown,Unknown,Yes,Unknown,Unknown,Unknown,Unknown,Unknown,Unknown,Yes,Unknown,Yes,Yes,Yes,Yes,Moderate,Unknown,Medium,35.1,-77.05
4200,Canada Lake Huron -- 3640,Blind River, ,0,1.8,4.9,4.9,0,0,0,Very Small,Coastal (Natural),Unknown,Fair,No,No,Unknown,Unknown,Yes,Unknown,Unknown,Yes,Yes,Unknown,Unknown,Unknown,Unknown,Unknown,Unknown,Unknown,Unknown,Unknown,Yes,Unknown,Unknown,Unknown,Unknown,Unknown,No,Unknown,Unknown,Yes,Unknown,Yes,Yes,Limited,Unknown,Unknown,46.183333,-82.95
3940,Canada Lake Huron -- 3640,Midland, ,0,6.4,6.4,6.4,0,0,0,Small,Coastal (Natural),Unknown,Excellent,No,No,Unknown,Unknown,Yes,Unknown,Yes,Yes,Yes,Unknown,Unknown,Unknown,Unknown,Unknown,Unknown,Unknown,Unknown,Unknown,Yes,Unknown,Yes,Unknown,Unknown,Unknown,Yes,Yes,Unknown,Yes,Yes,Yes,Yes,Unknown,Unknown,Small,44.75,-79.916667
3520,US Lake Erie -- 3400,Huron, ,0,7.9,7.9,7.9,0,0,0,Small,River (Natural),Unknown,Excellent,No,Yes,Unknown,Unknown,Yes,Yes,Yes,Unknown,Yes,Unknown,Unknown,Unknown,Unknown,Unknown,Unknown,Unknown,Unknown,Unknown,Yes,Unknown,Unknown,Unknown,Unknown,Unknown,Yes,Unknown,Unknown,Yes,Yes,Yes,Yes,None,Large,Small,41.4,-82.55
3430,US Lake Erie -- 3400,Buffalo, ,0,7.9,7.9,6.4,0,0,0,Large,Coastal (Breakwater),Unknown,Excellent,No,No,Unknown,Unknown,Yes,Yes,Yes,Yes,Yes,Unknown,Unknown,Unknown,Unknown,Unknown,Unknown,Unknown,Unknown,Unknown,Yes,Yes,Yes,Yes,Unknown,Unknown,Yes,Yes,Yes,Yes,Yes,Yes,Yes,Major,Large,Unknown,42.883333,-78.883333
5320,US Lake Superior -- 5230,Baraga, ,0,4.9,4.9,4.9,0,0,0,Very Small,Coastal (Natural),Unknown,Good,No,No,Unknown,Unknown,Yes,Unknown,Unknown,Unknown,Yes,Unknown,Unknown,Unknown,Unknown,Unknown,Unknown,Unknown,Unknown,Unknown,Yes,Unknown,Unknown,Unknown,Unknown,Unknown,Unknown,Unknown,Unknown,Yes,Yes,Yes,Unknown,Unknown,Unknown,Unknown,46.783333,-88.483333
33310,Scotland West Coast -- 32790,Lamlash Harbor, ,8,23.2,23.2,0,0,0,0,Very Small,Open Roadstead,Unknown,Fair,No,No,Unknown,Unknown,Unknown,Unknown,Unknown,Unknown,Unknown,Yes,Unknown,Unknown,Unknown,Unknown,Unknown,Unknown,Unknown,Unknown,Yes,Unknown,Unknown,Unknown,Unknown,Unknown,Unknown,Unknown,Unknown,Unknown,Unknown,Unknown,Unknown,Emergency Only,Unknown,Unknown,55.533333,-5.116667
33530,Scotland West Coast -- 32790,Ardrossan, ,3,4.9,21.6,4.9,0,0,0,Small,Coastal (Breakwater),Unknown,Fair,No,No,Unknown,Unknown,Yes,Yes,Yes,Yes,Yes,Unknown,Unknown,Unknown,Unknown,Unknown,Unknown,Unknown,Unknown,Unknown,Yes,Unknown,Yes,Unknown,Unknown,Unknown,Yes,Unknown,Unknown,Yes,Yes,Yes,Yes,Limited,Small,Small,55.65,-4.816667
2790,US St Lawrence R -- 2750,Alexandria Bay, ,0,3.4,3.4,3.4,0,0,0,Very Small,River (Natural),Unknown,Excellent,No,No,Unknown,Unknown,Yes,Unknown,Unknown,Unknown,Yes,Unknown,Unknown,Unknown,Unknown,Unknown,Unknown,Unknown,Unknown,Unknown,No,Unknown,Unknown,Unknown,Unknown,Unknown,Unknown,Unknown,Unknown,Yes,Yes,Yes,Yes,Unknown,Unknown,Unknown,44.333333,-75.916667
3100,Canada Lake Ontario -- 2820,Niagara, ,0,4.9,12.5,9.4,0,0,0,Very Small,River (Natural),Unknown,Excellent,No,No,Unknown,Unknown,Unknown,Unknown,Unknown,Yes,Yes,Unknown,Unknown,Unknown,Unknown,Unknown,Unknown,Unknown,Unknown,Unknown,Unknown,Unknown,Unknown,Unknown,Yes,Unknown,Unknown,Unknown,Unknown,Unknown,Unknown,Unknown,Unknown,Unknown,Unknown,Unknown,43.25,-79.066667
4490,US Lake Huron -- 4300,Calcite, ,0,6.4,0,6.4,0,0,0,Very Small,Coastal (Breakwater),Unknown,Poor,No,No,Unknown,Unknown,Unknown,Unknown,Unknown,Unknown,Yes,Unknown,Unknown,Unknown,Unknown,Unknown,Unknown,Unknown,Unknown,Unknown,Yes,Unknown,Unknown,Unknown,Unknown,Unknown,Unknown,Unknown,Unknown,Unknown,Unknown,Unknown,Unknown,Unknown,Unknown,Unknown,45.416667,-83.783333
23080,Norway -- 20620,Hommelvik, ,0,0,23.2,4.9,0,0,0,Very Small,Coastal (Natural),Unknown,Good,No,No,Unknown,Unknown,Yes,Unknown,Unknown,Yes,Yes,Yes,Unknown,Unknown,Unknown,Unknown,Unknown,Unknown,Unknown,Unknown,Yes,Unknown,Yes,Yes,Unknown,Unknown,Unknown,Unknown,Unknown,Yes,Yes,Yes,Unknown,Limited,Unknown,Small,63.416667,10.8
12772,Brazil SE Coast -- 12700,Aratu, ,3,17.1,0,11,0,0,0,Small,Open Roadstead,Unknown,Fair,No,No,Unknown,Unknown,Yes,Yes,Yes,Yes,Yes,Yes,Unknown,Unknown,Unknown,Unknown,Unknown,Unknown,Unknown,Unknown,Yes,Unknown,Unknown,Unknown,Unknown,Unknown,Unknown,Unknown,Unknown,No,Yes,Yes,Unknown,Limited,Large,Small,-12.783333,-38.5
22790,Norway -- 20620,Hemnesberget, ,0,0,0,14,0,0,0,Very Small,Coastal (Natural),Unknown,Good,No,No,Unknown,Unknown,Yes,Unknown,Unknown,Unknown,Yes,Yes,Unknown,Unknown,Unknown,Unknown,Unknown,Unknown,Unknown,Unknown,Yes,Unknown,Unknown,Unknown,Unknown,Unknown,Unknown,Unknown,Unknown,Unknown,Yes,Unknown,Yes,Unknown,Unknown,Unknown,66.233333,13.616667
30500,Jylland -- 30020,Holstebro-Stuer, ,0,3.4,3.4,3.4,0,0,0,Small,Coastal (Breakwater),Unknown,Good,Unknown,Unknown,Unknown,Unknown,Yes,Yes,Yes,Yes,Unknown,Unknown,Unknown,Unknown,Unknown,Unknown,Unknown,Unknown,Unknown,Unknown,Yes,Yes,Unknown,Yes,Unknown,Unknown,Yes,Unknown,Unknown,Unknown,Yes,Yes,Unknown,Limited,Unknown,Medium,56.5,8.583333
30785,Germany -- 30650,Butzfleth, ,3,12.5,6.4,14,0,0,0,Small,Open Roadstead,Unknown,Good,Unknown,Unknown,Unknown,Unknown,Yes,Yes,Unknown,Yes,Yes,Unknown,Unknown,Unknown,Unknown,Unknown,Unknown,Unknown,Unknown,Unknown,Yes,Yes,Unknown,Unknown,Unknown,Unknown,Yes,Unknown,Unknown,Unknown,Yes,Yes,Yes,Limited,Unknown,Small,53.65,9.516667
31375,England East Coast -- 31330,Isle Of Grain, ,4,11,14,12.5,0,0,0,Small,Coastal (Natural),Unknown,Fair,Yes,Unknown,Unknown,Unknown,Yes,Yes,Yes,Yes,Yes,Unknown,Unknown,Unknown,Unknown,Unknown,Unknown,Unknown,Unknown,Unknown,Yes,Yes,Yes,Yes,Unknown,Unknown,Yes,Unknown,Unknown,Unknown,Yes,Yes,Yes,Limited,Unknown,Small,51.433333,0.7
31945,Scotland East Coast -- 31870,Braefoot Bay Terminal, ,4,9.4,0,0,0,0,0,Small,Open Roadstead,Unknown,Fair,Unknown,Unknown,Unknown,Unknown,Yes,Yes,Yes,Yes,Unknown,Unknown,Unknown,Unknown,Unknown,Unknown,Unknown,Unknown,Unknown,Unknown,Yes,Yes,Unknown,Unknown,Unknown,Unknown,Unknown,Unknown,Unknown,Unknown,Yes,Unknown,Unknown,Unknown,Unknown,Small,56.033333,-3.316667
19130,Alaska -- 19080,Ketchikan, ,4,0,0,7.9,0,0,0,Small,Coastal (Natural),Unknown,Good,Unknown,Unknown,Unknown,Unknown,Yes,Yes,Yes,Unknown,Yes,Yes,Unknown,Unknown,Unknown,Unknown,Unknown,Unknown,Unknown,Unknown,Yes,Yes,Unknown,Unknown,Unknown,Unknown,Yes,Yes,Yes,Yes,Yes,Yes,Yes,Limited,Unknown,Unknown,55.333333,-131.65
24530,Sweden -- 23860,Bergkvara, ,1,4.9,6.4,3.4,0,0,0,Very Small,Open Roadstead,Unknown,Fair,No,No,Unknown,Unknown,Yes,Yes,Yes,Yes,Yes,Yes,Unknown,Unknown,Unknown,Unknown,Unknown,Unknown,Unknown,Unknown,Yes,Yes,Unknown,Yes,Unknown,Unknown,Yes,Yes,Unknown,Unknown,Yes,Yes,Unknown,Limited,Unknown,Unknown,56.383333,16.1
12710,Brazil SE Coast -- 12700,Cabedelo, ,2,3.4,4.9,11,0,0,0,Small,River (Natural),Unknown,Fair,No,No,Unknown,Unknown,Yes,Yes,Yes,Yes,Yes,Unknown,Unknown,Unknown,Unknown,Unknown,Unknown,Unknown,Unknown,Unknown,Yes,Unknown,Yes,Yes,Unknown,Unknown,Yes,No,No,Unknown,Yes,Yes,Unknown,Limited,Unknown,Medium,-6.966667,-34.833333
5560,New Brunswick -- 5555,Dalhousie, ,2,9.4,11,9.4,0,0,0,Small,Open Roadstead,Unknown,Fair,No,No,Unknown,Unknown,Yes,Yes,Yes,Yes,Yes,Unknown,Unknown,Unknown,Unknown,Unknown,Unknown,Unknown,Unknown,Unknown,Yes,Unknown,Unknown,Yes,Unknown,Unknown,Unknown,Yes,Unknown,Yes,Yes,Yes,Yes,Limited,Medium,Unknown,48.066667,-66.366667
14380,Chile -- 14070,Lota, ,1,11,11,7.9,0,0,0,Very Small,Coastal (Natural),Unknown,Poor,No,No,Unknown,Unknown,Yes,Yes,Yes,Yes,Yes,Unknown,Unknown,Unknown,Unknown,Unknown,Unknown,Unknown,Unknown,Unknown,Yes,Unknown,Unknown,Unknown,Unknown,Unknown,Unknown,Unknown,Unknown,Yes,Yes,No,No,Limited,Unknown,Small,-37.1,-73.15
19850,Alaska -- 19080,Mccord, ,1.8,0,0,7.9,0,0,0,Very Small,Coastal (Natural),Unknown,Good,Unknown,Unknown,Unknown,Unknown,Unknown,Unknown,Unknown,Unknown,Yes,Yes,Unknown,Unknown,Unknown,Unknown,Unknown,Unknown,Unknown,Unknown,Unknown,Unknown,Unknown,Unknown,Unknown,Unknown,Unknown,Unknown,Unknown,Unknown,Unknown,Unknown,Unknown,Unknown,Unknown,Unknown,57.15,-153.2
5990,Cape Breton Island -- 5860,North Sydney, ,3,11,11,9.4,0,0,0,Small,Coastal (Natural),Unknown,Excellent,No,No,Unknown,Unknown,Yes,Unknown,Yes,Yes,Yes,Unknown,Unknown,Unknown,Unknown,Unknown,Unknown,Unknown,Unknown,Unknown,Yes,Unknown,Unknown,Unknown,Unknown,Unknown,Unknown,Unknown,Unknown,Yes,Yes,Yes,Yes,Limited,Unknown,Medium,46.216667,-60.25
3380,Canada Lake Erie -- 3240,Amherstburg, ,0,4.9,6.4,4.9,0,0,0,Small,River (Natural),Unknown,Excellent,No,No,Unknown,Unknown,Yes,Unknown,Yes,Yes,Yes,Unknown,Unknown,Unknown,Unknown,Unknown,Unknown,Unknown,Unknown,Unknown,Yes,Unknown,Yes,Yes,Unknown,Unknown,Yes,Unknown,Unknown,Yes,Yes,Unknown,Unknown,Limited,Unknown,Unknown,42.1,-83.1
10010,Bahama Islands -- 9980,Matthew Town, ,2,3.4,14,12.5,0,0,0,Very Small,Open Roadstead,Unknown,Good,No,No,Unknown,Unknown,Yes,Yes,Yes,Unknown,Yes,Yes,Unknown,Unknown,Unknown,Unknown,Unknown,Unknown,Unknown,Unknown,Yes,Unknown,Unknown,Unknown,Unknown,Unknown,Yes,Unknown,Unknown,Yes,Yes,Unknown,Yes,Limited,Unknown,Unknown,20.95,-73.683333
11100,Puerto Rico -- 11080,Arecibo,Puerto Arecibo,0.3,6.4,14,6.4,0,0,0,Very Small,Coastal (Breakwater),Unknown,Good,Unknown,Unknown,Unknown,Unknown,Unknown,Yes,Yes,Unknown,Yes,Yes,Unknown,Unknown,Unknown,Unknown,Unknown,Unknown,Unknown,Unknown,Yes,Unknown,Unknown,Unknown,Unknown,Unknown,Yes,Unknown,Unknown,Unknown,Yes,Yes,Unknown,Unknown,Unknown,Unknown,18.483333,-66.7
7190,United States E Coast -- 6585,Newburyport, ,2.4,3.4,3.4,1.8,0,0,0,Very Small,River (Natural),Unknown,Good,Yes,No,Unknown,Unknown,Yes,Unknown,Yes,Yes,Yes,Unknown,Unknown,Unknown,Unknown,Unknown,Unknown,Unknown,Unknown,Unknown,Yes,Unknown,Unknown,Unknown,Unknown,Unknown,Unknown,Unknown,Unknown,Yes,Yes,Yes,Yes,Unknown,Unknown,Small,42.816667,-70.866667
29120,Bornholm -- 29020,Hasle, ,0,3.4,20.1,3.4,0,0,0,Very Small,Coastal (Breakwater),Unknown,Fair,No,No,Unknown,Unknown,Yes,Yes,Unknown,Unknown,Unknown,Yes,Unknown,Unknown,Unknown,Unknown,Unknown,Unknown,Unknown,Unknown,Yes,Yes,Yes,Unknown,Unknown,Unknown,Unknown,Unknown,Unknown,Yes,Yes,Yes,Yes,Limited,Unknown,Medium,55.183333,14.7
30170,Jylland -- 30020,Fredericia, ,1,14,14,4.9,0,0,0,Small,Coastal (Natural),Unknown,Good,No,Yes,Unknown,Unknown,Unknown,Yes,Yes,Yes,Yes,Unknown,Unknown,Unknown,Unknown,Unknown,Unknown,Unknown,Unknown,Unknown,Yes,Yes,Yes,Yes,Unknown,Unknown,Yes,Unknown,Unknown,Yes,Yes,Yes,Yes,Limited,Medium,Large,55.566667,9.766667
30640,Jylland -- 30020,Esbjerg, ,1,9.4,11,7.9,0,0,0,Small,Coastal (Natural),Unknown,Good,Yes,No,Unknown,Unknown,Yes,Yes,Yes,Yes,Yes,Unknown,Unknown,Unknown,Unknown,Unknown,Unknown,Unknown,Unknown,Unknown,Yes,Yes,Unknown,Yes,Unknown,Unknown,Yes,Unknown,Unknown,Unknown,Yes,Yes,Unknown,Limited,Small,Small,55.466667,8.45
31320,Belgium -- 31240,Nieuwpoort, ,5,1.8,6.4,3.4,0,0,0,Very Small,Canal or Lake,Unknown,Good,Yes,No,Unknown,Unknown,Yes,Yes,Yes,Yes,Yes,Unknown,Unknown,Unknown,Unknown,Unknown,Unknown,Unknown,Unknown,Unknown,Yes,Unknown,Yes,Yes,Unknown,Unknown,Unknown,Unknown,Unknown,Unknown,Yes,Yes,Yes,Limited,Unknown,Small,51.133333,2.75
32910,Scotland West Coast -- 32790,Kyleakin, ,3,9.4,11,1.8,0,0,0,Very Small,Coastal (Natural),Unknown,Fair,Yes,No,Unknown,Unknown,Unknown,Unknown,Unknown,Unknown,Unknown,Unknown,Unknown,Unknown,Unknown,Unknown,Unknown,Unknown,Unknown,Unknown,Unknown,Unknown,Unknown,Unknown,Unknown,Unknown,Unknown,Unknown,Unknown,Yes,Unknown,Unknown,Unknown,Emergency Only,Unknown,Unknown,57.266667,-5.733333
32920,Scotland West Coast -- 32790,Broadford Bay, ,13,12.5,9.4,3.4,0,0,0,Very Small,Coastal (Natural),Unknown,Poor,No,No,Unknown,Unknown,Yes,Unknown,Unknown,Unknown,Unknown,Unknown,Unknown,Unknown,Unknown,Unknown,Unknown,Unknown,Unknown,Unknown,Unknown,Unknown,Unknown,No,Unknown,Unknown,Unknown,Unknown,Unknown,Yes,Unknown,Unknown,Unknown,Emergency Only,Unknown,Unknown,57.25,-5.883333
10430,Cuba South Coast -- 10310,Ceiba Hueca, ,1,9.4,9.4,7.9,0,0,0,Very Small,Open Roadstead,Unknown,Poor,No,No,Unknown,Unknown,Unknown,Yes,Unknown,Unknown,Yes,Yes,Unknown,Unknown,Unknown,Unknown,Unknown,Unknown,Unknown,Unknown,Yes,Unknown,Unknown,Unknown,Unknown,Unknown,Unknown,Unknown,Unknown,Unknown,Yes,No,No,None,Unknown,Unknown,20.216667,-77.316667
61160,Japan -- 61100,Kushiro Ko,Kusiro,2,9.4,9.4,14,0,0,0,Medium,Coastal (Breakwater),Unknown,Good,No,No,Unknown,Unknown,Yes,Yes,Yes,Yes,Yes,Unknown,Unknown,Unknown,Unknown,Unknown,Unknown,Unknown,Unknown,Unknown,Yes,Yes,Unknown,Unknown,Yes,Unknown,Yes,Yes,Unknown,Yes,Yes,Yes,Yes,Limited,Unknown,Medium,42.983333,144.366667
60320,South Korea -- 60315,Inchon,Chemulpo; Jinsen,9,11,23.2,9.4,0,0,0,Large,River (Basins),Unknown,Good,Yes,Yes,Unknown,Unknown,Yes,Yes,Yes,Yes,Yes,Yes,Unknown,Unknown,Unknown,Unknown,Unknown,Unknown,Unknown,Unknown,Yes,Unknown,Yes,Yes,Yes,Unknown,Yes,Unknown,Unknown,Yes,Yes,Yes,Yes,Limited,Small,Medium,37.466667,126.616667
60250,China Continued -- 59850,Dalian,Dairen; Dalian; Dalian Wan; Ta Cien; Ta Lien,3,23.2,23.2,17.1,0,0,0,Large,Coastal (Breakwater),Unknown,Good,No,Yes,Unknown,Unknown,Unknown,Yes,Yes,Yes,Yes,Yes,Unknown,Unknown,Unknown,Unknown,Unknown,Unknown,Unknown,Unknown,Yes,Yes,Yes,Yes,Yes,Unknown,Yes,Yes,Yes,Yes,Yes,Yes,Unknown,Major,Medium,Medium,38.916667,121.666667
55210,New Zealand N Island -- 54990,New Plymouth, ,10,9.4,23.2,9.4,0,0,0,Small,Coastal (Breakwater),Unknown,Fair,No,Yes,Unknown,Unknown,Yes,Yes,Yes,Yes,Unknown,Unknown,Unknown,Unknown,Unknown,Unknown,Unknown,Unknown,Unknown,Unknown,Yes,Yes,Unknown,Yes,Unknown,Unknown,Yes,Yes,Yes,Yes,Yes,Yes,Yes,Major,Small,Small,-39.066667,174.033333
55060,New Zealand N Island -- 54990,Auckland, ,2,9.4,11,9.4,0,0,0,Large,River (Natural),Unknown,Excellent,No,No,Unknown,Unknown,Yes,Yes,Yes,Yes,Yes,Unknown,Unknown,Unknown,Unknown,Unknown,Unknown,Unknown,Unknown,Unknown,Yes,Yes,Yes,Yes,Yes,Unknown,Yes,Yes,Yes,Yes,Yes,Yes,Yes,Major,Large,Medium,-36.85,174.766667
52720,Seram -- 52650,Ambon,Amboina,5,11,11,11,0,0,0,Small,Coastal (Natural),Unknown,Fair,No,No,Unknown,Unknown,Yes,Yes,Yes,No,Yes,Yes,Unknown,Unknown,Unknown,Unknown,Unknown,Unknown,Unknown,Unknown,Yes,Unknown,Yes,Yes,Yes,Unknown,Yes,Unknown,Unknown,Yes,Yes,Yes,Unknown,Limited,Unknown,Unknown,-3.683333,128.166667
48076,Israel -- 48075,Elat,Eilat; Elath,1,23.2,23.2,9.4,0,0,0,Small,Coastal (Natural),Unknown,Fair,No,No,Unknown,Unknown,Yes,Yes,Yes,Unknown,Yes,Yes,Unknown,Unknown,Unknown,Unknown,Unknown,Unknown,Unknown,Unknown,Yes,Yes,Yes,Unknown,Unknown,Unknown,Yes,Yes,Unknown,Yes,Yes,Yes,Yes,Limited,Small,Small,29.55,34.95
